ID;Name;Latitude;Longitude;TransportType;adresse;compl_adresse;code_postale
1;Gare de Lyon;48.8448057;2.3734794;metro;Place Louis Armand;Quartier des Quinze-Vingts;75012
2;Franklin D. Roosevelt;48.8690339;2.3099266;metro;Rond-point des Champs-Élysées-Marcel-Dassault;Quartier du Faubourg-du-Roule;75008
3;Tuileries;48.8645194;2.3296312;metro;Rue de Rivoli;Quartier Saint-Germain-l'Auxerrois;75001
4;Châtelet;48.8587782;2.3474106;metro;Rue de Rivoli;Quartier Les Halles;75001
5;Saint-Paul;48.8553844;2.3604068;metro;Rue de Rivoli;Quartier Saint-Gervais;75004
6;La Motte-Picquet - Grenelle;48.8489809;2.2981916;metro;Boulevard de Grenelle;Quartier de Grenelle;75015
7;Cambronne;48.8475232;2.3029457;metro;Boulevard Garibaldi;Quartier Necker;75015
8;Dupleix;48.8504095;2.2936611;metro;Boulevard de Grenelle;Quartier de Grenelle;75015
9;Gare Montparnasse;48.8400624;2.3191085;metro;Allée du Capitaine Dronne;Quartier Necker;75015
10;Convention;48.8372872;2.2966539;metro;Rue de Vaugirard;Quartier Saint-Lambert;75015
11;Invalides;48.8628261;2.3138373;metro;Quai d'Orsay;Quartier des Invalides;75007
12;Porte d'Orléans;48.8236307;2.3256075;metro;Avenue du Général Leclerc;Quartier du Petit-Montrouge;75014
13;Alésia;48.8280318;2.3270406;metro;Place Victor et Hélène Basch;Quartier du Petit-Montrouge;75014
14;Mouton-Duvernet;48.8312786;2.3298657;metro;Avenue du Général Leclerc;Quartier du Petit-Montrouge;75014
15;Saint-Jacques;48.8329806;2.3368199;metro;Boulevard Saint-Jacques;Quartier du Parc-de-Montsouris;75014
16;Glacière;48.8311451;2.3434916;metro;Paris 13e Arrondissement;Paris;75013
17;Place d'Italie;48.8309446;2.3558932;metro;Avenue d'Italie;Quartier de la Maison-Blanche;75013
18;Nationale;48.8331995;2.3628272;metro;Boulevard Vincent Auriol;Quartier de la Gare;75013
19;Chevaleret;48.83495;2.3681023;metro;Boulevard Vincent Auriol;Quartier de la Gare;75013
20;Quai de la Gare;48.8370444;2.3728619;metro;Boulevard Vincent Auriol;Quartier de la Salpêtrière;75013
21;Stalingrad;48.8842416;2.3670741;metro;Boulevard de la Villette;Quartier de la Villette;75019
22;Nation;48.847611;2.3955668;metro;Place de la Nation;Quartier de Picpus;75012
23;Buttes Chaumont;48.8783961;2.3812008;metro;Avenue Jacques de Liniers;Quartier du Combat;75019
24;Bolivar;48.8809263;2.3739077;metro;Avenue Secrétan;Quartier du Combat;75019
25;Buzenval;48.8518248;2.4013274;metro;Rue d'Avron;Quartier de Charonne;75020
26;Ménilmontant;48.8667079;2.3833739;metro;Place Jean Ferrat;Quartier Saint-Ambroise;75011
27;Père Lachaise;48.8629496;2.3874348;metro;Boulevard de Ménilmontant;Quartier du Père-Lachaise;75020
28;Philippe Auguste;48.8582563;2.3901666;metro;Quartier de la Roquette;Paris 11e Arrondissement;75011
29;Alexandre Dumas;48.85634;2.3944352;metro;Quartier Sainte-Marguerite;Paris 11e Arrondissement;75011
30;Belleville;48.872035;2.3768798;metro;Rue du Faubourg du Temple;Quartier de l'Hôpital Saint-Louis;75010
31;Couronnes;48.869062;2.3804698;metro;Rue des Couronnes;Quartier de la Folie-Méricourt;75011
32;Colonel Fabien;48.8774215;2.3710197;metro;Boulevard de la Villette;Quartier du Combat;75019
33;Blanche;48.8835274;2.3335853;metro;Boulevard de Clichy;Quartier des Grandes-Carrières;75018
34;Place de Clichy;48.8834776;2.3272899;metro;Quartier Saint-Georges;Paris 9e Arrondissement;75009
35;Rome;48.8823012;2.3213298;metro;Boulevard des Batignolles;Quartier des Batignolles;75017
36;Villiers;48.8811181;2.3149118;metro;Boulevard de Courcelles;Quartier de l'Europe;75008
37;Monceau;48.8803157;2.3086415;metro;Place de la République Dominicaine;Quartier de la Plaine-de-Monceau;75017
38;Porte Dauphine;48.8711895;2.2783699;metro;Avenue Hubert Germain;Quartier de la Porte-Dauphine;75116
39;Rue Saint-Maur;48.864335;2.3794817;metro;Avenue de la République;Quartier Saint-Ambroise;75011
40;Parmentier;48.8653571;2.3739035;metro;Avenue de la République;Quartier de la Folie-Méricourt;75011
41;Arts et Métiers;48.8654718;2.3561116;metro;Rue de Turbigo;Quartier des Arts-et-Métiers;75003
42;Bourse;48.8686539;2.3414383;metro;Place de la Bourse;Quartier Vivienne;75002
43;Quatre Septembre;48.8695929;2.3358665;metro;Rue Monsigny;Quartier Gaillon;75002
44;Opéra;48.8706446;2.33233;metro;Boulevard des Capucines;Quartier Gaillon;75002
45;Havre - Caumartin;48.8736792;2.3273189;metro;Boulevard Haussmann;Quartier de la Chaussée-d'Antin;75009
46;Malesherbes;48.8829752;2.3089995;metro;Avenue de Villiers;Quartier de la Plaine-de-Monceau;75017
47;Wagram;48.8840526;2.3037389;metro;Avenue de Villiers;Quartier de la Plaine-de-Monceau;75017
48;Pereire;48.8848183;2.298274;metro;Avenue de Villiers;Quartier de la Plaine-de-Monceau;75017
49;Porte de Champerret;48.8859272;2.2934906;metro;Boulevard Berthier;Quartier de la Plaine-de-Monceau;75017
50;Vaugirard;48.839587;2.3012795;metro;Rue de Vaugirard;Quartier Saint-Lambert;75015
51;Volontaires;48.8415334;2.3080102;metro;Rue de Vaugirard;Quartier Necker;75015
52;Falguière;48.8444916;2.317965;metro;Rue de Vaugirard;Quartier Necker;75015
53;Duroc;48.8468433;2.3166286;metro;Place Léon-Paul Fargue;Quartier Notre-Dame-des-Champs;75006
54;Bel-Air;48.8413382;2.4009129;metro;Boulevard de Picpus;Quartier de Picpus;75012
55;Marx Dormoy;48.8905061;2.3599967;metro;Rue de la Chapelle;Quartier de la Chapelle;75018
56;Jacques Bonsergent;48.8711191;2.3607546;metro;Boulevard de Magenta;Quartier de la Porte-Saint-Martin;75010
57;Maraîchers;48.8527267;2.4061303;metro;Rue d'Avron;Quartier de Charonne;75020
58;Rue des Boulets;48.8525808;2.3887914;metro;Boulevard Voltaire;Quartier Sainte-Marguerite;75011
59;Charonne;48.8547411;2.3853043;metro;Boulevard Voltaire;Quartier de la Roquette;75011
60;Voltaire;48.8581794;2.3798223;metro;Place Léon Blum;Quartier de la Roquette;75011
61;Saint-Ambroise;48.8610434;2.3747264;metro;Boulevard Voltaire;Quartier Saint-Ambroise;75011
62;Oberkampf;48.8641124;2.3694232;metro;Boulevard Voltaire;Quartier de la Folie-Méricourt;75011
63;Bonne Nouvelle;48.8705324;2.3487457;metro;Boulevard de Bonne Nouvelle;Quartier de la Porte-Saint-Denis;75010
64;Grands Boulevards;48.8714412;2.3434953;metro;Boulevard Poissonnière;Quartier du Faubourg-Montmartre;75009
65;Saint-Augustin;48.874471;2.3217921;metro;Boulevard Haussmann;Quartier de la Madeleine;75008
66;Cardinal Lemoine;48.8465303;2.3518356;metro;Rue des Boulangers;Quartier Saint-Victor;75005
67;Maubert - Mutualité;48.8500649;2.3484301;metro;Boulevard Saint-Germain;Quartier de la Sorbonne;75005
68;Cluny-La Sorbonne;48.8510938;2.3441587;metro;Boulevard Saint-Germain;Quartier de la Sorbonne;75005
69;Mabillon;48.8528857;2.3349394;metro;Rue du Four;Quartier de Saint-Germain-des-Prés;75006
70;Balard;48.8363968;2.278379;metro;Place Balard;Quartier de Javel;75015
71;Lourmel;48.8387364;2.2821481;metro;Avenue Félix Faure;Quartier de Javel;75015
72;Boucicaut;48.8410837;2.2879218;metro;Rue de la Convention;Quartier de Javel;75015
73;Félix Faure;48.8426775;2.2917792;metro;Avenue Félix Faure;Quartier de Javel;75015
74;Dugommier;48.8390379;2.3897217;metro;Boulevard de Reuilly;Quartier de Picpus;75012
75;Bercy;48.8401549;2.3799474;metro;Place du Bataillon du Pacifique;Quartier de Bercy;75012
76;Montparnasse-Bienvenüe;48.8421022;2.3202714;metro;Boulevard de Vaugirard;Quartier Necker;75015
77;Pasteur;48.8429336;2.3125906;metro;Rue de Vaugirard;Quartier Necker;75015
78;Kléber;48.8716801;2.2935185;metro;Avenue Kléber;Chaillot;75116
79;Passy;48.8575009;2.285778;metro;Rue Marietta Alboni;Quartier de la Muette;75016
80;Iéna;48.8646177;2.2937179;metro;Place d'Iéna;Chaillot;75116
81;Rue de la Pompe;48.8640672;2.278149;metro;Avenue Georges Mandel;Quartier de la Porte-Dauphine;75116
82;La Muette;48.8579754;2.274062;metro;Avenue Mozart;Quartier de la Muette;75016
83;Ranelagh;48.8555764;2.2702166;metro;Rue du Ranelagh;Quartier de la Muette;75016
84;Jasmin;48.8525598;2.2681802;metro;Avenue Mozart;Quartier d'Auteuil;75016
85;Michel-Ange - Molitor;48.8450092;2.26111;metro;Rue Molitor;Quartier d'Auteuil;75016
86;Exelmans;48.8430044;2.2600472;metro;Rue Michel-Ange;Quartier d'Auteuil;75016
87;Porte de Saint-Cloud;48.8377707;2.2565741;metro;Place de la Porte de Saint-Cloud;Quartier d'Auteuil;75016
88;Alma-Marceau;48.8648683;2.300292;metro;Avenue du Président Wilson;Chaillot;75116
89;Saint-Philippe du Roule;48.8723362;2.3100827;metro;Avenue Franklin Delano Roosevelt;Quartier du Faubourg-du-Roule;75008
90;Miromesnil;48.873719;2.3145029;metro;Avenue Percier;Quartier de l'Europe;75008
91;Sèvres-Babylone;48.8514598;2.3268704;metro;Rue de Sèvres;Quartier Saint-Thomas-d'Aquin;75007
92;Brochant;48.8905757;2.3202004;metro;Rue Brochant;Quartier des Épinettes;75017
93;La Fourche;48.886971;2.3258228;metro;Avenue de Clichy;Quartier des Grandes-Carrières;75017
94;Ségur;48.8469753;2.3074451;metro;Avenue de Suffren;Quartier Necker;75015
95;Avenue Émile Zola;48.8469751;2.2953222;metro;Quartier de Grenelle;Paris 15e Arrondissement;75015
96;Assemblée Nationale;48.8606922;2.3210377;metro;Boulevard Saint-Germain;Quartier des Invalides;75007
97;Solférino;48.8586551;2.3229865;metro;Boulevard Saint-Germain;Quartier des Invalides;75007
98;Rennes;48.848198;2.3277771;metro;rue de rennes;Quartier Notre-Dame-des-Champs;75006
99;Notre-Dame des Champs;48.8446836;2.3288039;metro;Boulevard Raspail;Quartier Notre-Dame-des-Champs;75006
100;Commerce;48.8447112;2.2938643;metro;Rue du Commerce;Quartier de Grenelle;75015
101;École Militaire;48.8546647;2.3060728;metro;Avenue de la Motte-Picquet;Quartier du Gros-Caillou;75007
102;La Tour Maubourg;48.8575602;2.3103234;metro;Avenue de la Motte-Picquet;Quartier des Invalides;75007
103;Filles du Calvaire;48.8633194;2.3666323;metro;Boulevard du Temple;Quartier de la Folie-Méricourt;75011
104;Saint-Sébastien - Froissart;48.8611816;2.367234;metro;Boulevard des Filles du Calvaire;Quartier Saint-Ambroise;75011
105;Chemin Vert;48.8574434;2.3681408;metro;Boulevard Beaumarchais;Quartier Saint-Ambroise;75011
106;Ledru-Rollin;48.8512945;2.3760274;metro;Rue du Faubourg Saint-Antoine;Quartier des Quinze-Vingts;75012
107;Faidherbe — Chaligny;48.8501609;2.3842222;metro;Rue du Faubourg Saint-Antoine;Quartier Sainte-Marguerite;75011
108;Montgallet;48.844304;2.3901962;metro;Rue de Reuilly;Quartier de Picpus;75012
109;Michel Bizot;48.8370694;2.4024586;metro;Avenue Daumesnil;Quartier du Bel-Air;75012
110;Porte Dorée;48.8352765;2.4061775;metro;Boulevard Poniatowski;Quartier du Bel-Air;75012
111;Picpus;48.8450724;2.4010857;metro;Avenue de Saint-Mandé;Quartier de Picpus;75012
112;Porte de Charenton;48.8322315;2.3990408;metro;Boulevard Poniatowski;Quartier de Picpus;75012
113;Trinité d'Estienne d'Orves;48.8763067;2.3326426;metro;Rue de Châteaudun;Quartier de la Chaussée-d'Antin;75009
114;Notre-Dame de Lorette;48.8760191;2.3385341;metro;Rue de Châteaudun;Quartier de la Chaussée-d'Antin;75009
115;Saint-Georges;48.8784466;2.3374748;metro;Place Saint-Georges;Quartier Saint-Georges;75009
116;Abbesses;48.8845853;2.3379012;metro;Rue des Abbesses;Quartier des Grandes-Carrières;75018
117;Lamarck - Caulaincourt;48.8897556;2.3387677;metro;Rue Pierre Dac;Quartier des Grandes-Carrières;75018
118;Jules Joffrin;48.8925349;2.3446536;metro;Rue Ordener;Quartier de Clignancourt;75018
119;Porte de la Chapelle;48.8977035;2.3594563;metro;Rue de la Chapelle;Quartier de la Chapelle;75018
120;Simplon;48.8938481;2.3478412;metro;Boulevard Ornano;Quartier de Clignancourt;75018
121;Gare de l'Est;48.8762027;2.3579127;metro;Rue du 8 Mai 1945;Quartier Saint-Vincent-de-Paul;75010
122;Cité;48.8553245;2.347542;metro;Place Louis Lépine;Quartier Les Îles;75004
123;Saint-Michel;48.8532864;2.3435081;metro;Place Saint-Michel;Quartier de la Monnaie;75006
124;Saint-Germain-des-Prés;48.8536304;2.334471;metro;Boulevard Saint-Germain;Quartier de Saint-Germain-des-Prés;75006
125;Saint-Placide;48.847098;2.3270206;metro;Rue de Rennes;Quartier Notre-Dame-des-Champs;75006
126;Vavin;48.8422164;2.3290114;metro;Boulevard du Montparnasse;Quartier Notre-Dame-des-Champs;75006
127;Charles Michels;48.84647;2.2858803;metro;Avenue Émile Zola;Quartier de Javel;75015
128;Javel - André Citroën;48.8461781;2.2782825;metro;Avenue Émile Zola;Quartier de Javel;75015
129;Église d'Auteuil;48.8473124;2.2686366;metro;Place Théodore Rivière;Quartier d'Auteuil;75016
130;Porte d'Auteuil;48.8480881;2.2587539;metro;Place de la Porte d'Auteuil;Quartier d'Auteuil;75016
131;Chardon-Lagache;48.8454285;2.2671305;metro;Rue Chardon-Lagache;Quartier d'Auteuil;75016
132;Mirabeau;48.8468116;2.2716976;metro;Rue Mirabeau;Quartier d'Auteuil;75016
133;Goncourt;48.8699854;2.3710671;metro;Avenue Parmentier;Quartier de la Folie-Méricourt;75011
134;Pyrénées;48.8738565;2.3852638;metro;Rue de Belleville;Quartier de Belleville;75020
135;Jourdain;48.8750944;2.38933;metro;Rue du Jourdain;Quartier de Belleville;75020
136;Bréguet-Sabin;48.8566333;2.3704333;metro;Boulevard Richard-Lenoir;Quartier de la Roquette;75011
137;Richard Lenoir;48.8602134;2.3720741;metro;Boulevard Richard-Lenoir;Quartier Saint-Ambroise;75011
138;Riquet;48.8884812;2.3742226;metro;Avenue de Flandre;Quartier de la Villette;75019
139;Crimée;48.8908513;2.3773681;metro;Avenue de Flandre;Quartier de la Villette;75019
140;Corentin Cariou;48.8947282;2.3823046;metro;Avenue Corentin Cariou;Quartier du Pont-de-Flandre;75019
141;Porte de la Villette;48.8974039;2.385591;metro;Boulevard Macdonald;Quartier du Pont-de-Flandre;75019
142;Sully - Morland;48.8513954;2.3618174;metro;Quai des Célestins;Quartier de l'Arsenal;75004
143;Pont Marie;48.8537872;2.3565905;metro;Quai de l'Hôtel de Ville;Quartier Saint-Gervais;75004
144;Place Monge;48.8429053;2.3522772;metro;Rue Larrey;Quartier du Jardin des Plantes;75005
145;Censier - Daubenton;48.8406473;2.3519334;metro;Rue Monge;Quartier du Jardin des Plantes;75005
146;Les Gobelins;48.8356304;2.3526735;metro;Avenue des Gobelins;Quartier de la Salpêtrière;75013
147;Danube;48.8819488;2.393338;metro;Rue David d'Angers;Quartier d'Amérique;75019
148;Saint-Fargeau;48.8715218;2.4043104;metro;Avenue Gambetta;Quartier Saint-Fargeau;75020
149;Pelleport;48.8680997;2.4013152;metro;Place Paul Signac;Quartier du Père-Lachaise;75020
150;Saint-Marcel;48.8382761;2.3608491;metro;Boulevard de l'Hôpital;Quartier de la Salpêtrière;75013
151;Guy Môquet;48.8927389;2.3273435;metro;Avenue de Saint-Ouen;Quartier des Grandes-Carrières;75018
152;Porte de Saint-Ouen;48.8971558;2.3288425;metro;Avenue de Saint-Ouen;Quartier des Grandes-Carrières;75018
153;Tolbiac;48.8260904;2.3573505;metro;Avenue d'Italie;Quartier de la Maison-Blanche;75013
154;Maison Blanche;48.8214639;2.3587863;metro;Avenue d'Italie;Quartier de la Maison-Blanche;75013
155;Champs-Élysées - Clemenceau;48.8678551;2.3138686;metro;Avenue des Champs-Élysées;Quartier des Champs-Élysées;75008
156;Saint-Sulpice;48.8511009;2.3307034;metro;Rue de Rennes;Quartier Notre-Dame-des-Champs;75006
157;Château Landon;48.8788923;2.3624779;metro;Rue du Faubourg Saint-Martin;Quartier de l'Hôpital Saint-Louis;75010
158;Luxembourg;48.8454719;2.339808;metro;Boulevard Saint-Michel;Quartier du Val-de-Grâce;75005
159;Magenta;48.8808038;2.3587094;metro;Rue Demarquay;Quartier Saint-Vincent-de-Paul;75010
160;Bir-Hakeim;48.8538898;2.2893811;metro;Boulevard de Grenelle;Quartier de Grenelle;75015
161;Auber;48.8722245;2.3297877;metro;Rue Auber;Quartier de la Chaussée-d'Antin;75009
162;Porte de Choisy;48.8201241;2.3647858;metro;Boulevard Masséna;Quartier de la Gare;75013
163;Vaneau;48.8491519;2.3218529;metro;Rue de Sèvres;Quartier Saint-Thomas-d'Aquin;75007
164;Ternes;48.8783132;2.2990737;metro;Boulevard de Courcelles;Quartier des Ternes;75017
165;Gare Montparnasse 3 - Vaugirard;48.8385604;2.3159707;metro;Rue du Cotentin;Quartier Necker;75015
166;Avron;48.851501;2.3982195;metro;Allée Maria Doriath;Quartier Sainte-Marguerite;75011
167;Gare de Lyon;48.8435522;2.3743151;metro;Quartier des Quinze-Vingts;Paris 12e Arrondissement;75012
168;Marcadet - Poissonniers;48.8914837;2.3497296;metro;Boulevard Barbès;Quartier de Clignancourt;75018
169;Sèvres-Lecourbe;48.8456163;2.3095848;metro;Boulevard Garibaldi;Quartier Necker;75015
170;Nation;48.8482705;2.3958306;metro;Place de la Nation;Quartier de Picpus;75012
171;Porte de Clignancourt;48.8973976;2.3448521;metro;Passage du Mont Cenis;Quartier de Clignancourt;75018
172;Paris-Bercy - Bourgogne-Pays d'Auvergne;48.8391964;2.382849;metro;Boulevard de Bercy;Quartier de Bercy;75012
173;Europe;48.8787706;2.3222823;metro;Rue de Madrid;Quartier de l'Europe;75008
174;Botzaris;48.879514;2.3885871;metro;Rue Botzaris;Quartier d'Amérique;75019
175;Jaurès;48.8825949;2.3703263;metro;Place de la Bataille de Stalingrad;Quartier de la Villette;75019
176;Porte de Vanves;48.827676;2.3054796;metro;Boulevard Brune;Quartier de Plaisance;75014
177;Place des Fêtes;48.8768713;2.3932057;metro;Quartier d'Amérique;Paris 19e Arrondissement;75019
178;Stalingrad;48.8851627;2.3702373;metro;Avenue de Flandre;Quartier de la Villette;75019
179;Porte de Montreuil;48.8535352;2.4106565;metro;Avenue de la Porte de Montreuil;Quartier de Charonne;75020
180;Avenue du Président Kennedy - Maison de Radio-France;48.8532278;2.2801681;metro;Rue du Ranelagh;Quartier de la Muette;75016
181;Musée d'Orsay;48.8605888;2.3259096;metro;62;Rue de Lille;75343
182;Javel;48.8465072;2.2771727;metro;Port de Javel-Haut;Quartier de Javel;75015
183;Porte Maillot;48.8777372;2.2827016;metro;Place de la Porte Maillot;Quartier des Ternes;75017
184;Paris Gare de l'Est;48.8770979;2.3594905;metro;Place du 11 Novembre 1918;Quartier Saint-Vincent-de-Paul;75010
185;Cité Universitaire;48.8205877;2.3390071;metro;24;Boulevard Jourdan;75014
186;Paris Gare du Nord;48.8804003;2.3549733;metro;112;Rue de Maubeuge;75010
187;Châtelet - Les Halles;48.8616513;2.3470129;metro;101;Grand Balcon Est;75001
188;République;48.8676215;2.3637014;metro;Quartier de la Folie-Méricourt;Paris 11e Arrondissement;75011
189;Bibliothèque François Mitterrand;48.8297207;2.3770491;metro;Quai D;Quartier de la Gare;75013
190;Champ de Mars - Tour Eiffel;48.8567083;2.2897559;metro;Promenade d'Australie;Quartier de Grenelle;75015
191;Pont de l'Alma;48.8625482;2.2999919;metro;Promenade Gisèle Halimi;Quartier du Gros-Caillou;75007
192;Anvers;48.8828803;2.3442565;metro;Boulevard Marguerite de Rochechouart;Quartier de Rochechouart;75009
193;Funiculaire Montmartre - Station Inférieure;48.8846923;2.3426644;metro;Place Suzanne Valadon;Quartier de Clignancourt;75018
194;Funiculaire Montmartre - Station Supérieure;48.8856581;2.3425549;metro;Rue du Cardinal Dubois;Quartier de Clignancourt;75018
195;La Chapelle;48.8844068;2.3603057;metro;Boulevard de la Chapelle;Quartier de la Chapelle;75018
196;Gare d'Austerlitz;48.8412453;2.3663585;metro;85;Quai d'Austerlitz;75013
197;Quai de la Rapée;48.8464813;2.3659024;metro;Voie Mazas;Quartier des Quinze-Vingts;75012
198;Sentier;48.8677209;2.3457562;metro;Rue Réaumur;Quartier du Mail;75002
199;Avenue Foch;48.8705615;2.2752552;metro;Place du Maréchal de Lattre de Tassigny;Quartier de la Porte-Dauphine;75116
200;Avenue Henri Martin;48.8645533;2.2721528;metro;Boulevard Flandrin;Quartier de la Porte-Dauphine;75116
201;Gare d'Austerlitz;48.8423727;2.3656105;metro;Cour Seine;Quartier de la Salpêtrière;75013
202;Pereire - Levallois;48.8855014;2.2981866;metro;Boulevard Pereire;Quartier de la Plaine-de-Monceau;75017
203;Gare de Paris-Saint-Lazare;48.87653;2.3252374;metro;11;Parking Saint-Lazare;75008
204;Saint-Lazare;48.8754153;2.3253531;metro;Rue Saint-Lazare;Quartier de l'Europe;75009
205;Saint-Michel Notre-Dame;48.8533538;2.345784;metro;Quai Saint-Michel;Quartier de la Sorbonne;75005
206;Pont du Garigliano;48.8393018;2.2706619;metro;Esplanade Henri de France;Quartier de Javel;75015
207;Neuilly - Porte Maillot;48.8780667;2.2846161;metro;82;Avenue de la Grande Armée;75017
208;Victor Hugo;48.8699395;2.2860712;metro;Avenue Victor Hugo;Chaillot;75116
209;Concorde;48.8662052;2.3223767;metro;Place de la Concorde;Quartier de la Madeleine;75008
210;Rosa Parks;48.8964867;2.3740572;metro;Allée Rose Dieng-Kuntz;Quartier du Pont-de-Flandre;75019
211;Invalides;48.8608923;2.3144984;metro;Rue de l'Université;Quartier des Invalides;75007
212;Trocadéro;48.863045;2.2871938;metro;Place du Trocadéro et du 11 Novembre 1918;Chaillot;75116
213;Pigalle;48.8822982;2.3380899;metro;Quartier de Clignancourt;Paris 18e Arrondissement;75018
214;Château Rouge;48.8872884;2.3495532;metro;Boulevard Barbès;Quartier de Clignancourt;75018
215;Jussieu;48.8459626;2.354801;metro;Place Jussieu;Quartier Saint-Victor;75005
216;Charles de Gaulle — Étoile;48.8744088;2.295508;metro;Avenue de Wagram;Quartier du Faubourg-du-Roule;75008
217;Denfert-Rochereau;48.8342649;2.3326427;metro;Place Denfert Rochereau;Quartier du Montparnasse;75014
218;Palais Royal - Musée du Louvre;48.8624906;2.3360431;metro;Rue de Rivoli;Quartier du Palais Royal;75001
219;Montparnasse-Bienvenüe;48.8439336;2.3241027;metro;Place du 18 Juin 1940;Quartier Notre-Dame-des-Champs;75006
220;Bastille;48.852987;2.3688579;metro;Place de la Bastille;Quartier de l'Arsenal;75004
221;Hôtel de Ville;48.8575406;2.3515397;metro;Rue du Renard;Quartier Saint-Merri;75004
222;Strasbourg - Saint-Denis;48.8693002;2.3542855;metro;Boulevard Saint-Denis;Quartier de la Porte-Saint-Martin;75010
223;Barbès - Rochechouart;48.8837466;2.3496958;metro;Boulevard de la Chapelle;Quartier de la Goutte-d'Or;75018
224;Porte des Lilas;48.8769658;2.4064184;metro;Avenue Gambetta;Quartier Saint-Fargeau;75020
225;Louis Blanc;48.8813308;2.3653555;metro;Rue du Faubourg Saint-Martin;Quartier Saint-Vincent-de-Paul;75010
226;Bibliothèque François Mitterrand;48.8300059;2.3768474;metro;Quartier de la Gare;Paris 13e Arrondissement;75013
227;Gare de Lyon;48.8451709;2.3725553;metro;Place Louis Armand;Quartier des Quinze-Vingts;75012
228;Gare du Nord (RER);48.881399;2.357438;metro;Rue du Faubourg Saint-Denis;Quartier Saint-Vincent-de-Paul;75010
229;Charles de Gaulle-Étoile;48.8742672;2.2948746;metro;Place Charles de Gaulle;Quartier des Ternes;75017
230;Gare du Nord (Métro);48.8795666;2.3572124;metro;Rue du Faubourg Saint-Denis;Quartier Saint-Vincent-de-Paul;75010
231;Porte de Clichy;48.8940816;2.3151144;metro;Rue Fragonard;Quartier des Épinettes;75017
232;Pont Neuf;48.8585776;2.3422202;metro;Quai du Louvre;Quartier Saint-Germain-l'Auxerrois;75001
233;Les Halles;48.8624659;2.3460086;metro;Allée Saint-John Perse;Quartier Les Halles;75001
234;Réaumur - Sébastopol;48.8662481;2.3526084;metro;Rue Réaumur;Quartier des Arts-et-Métiers;75003
235;Étienne Marcel;48.8638718;2.3490301;metro;Rue Étienne Marcel;Quartier de Bonne-Nouvelle;75002
236;Château d'Eau;48.8728888;2.3563528;metro;Boulevard de Strasbourg;Quartier de la Porte-Saint-Martin;75010
237;Chaussée d'Antin - La Fayette;48.8730441;2.3332127;metro;Boulevard Haussmann;Quartier de la Chaussée-d'Antin;75009
238;Le Peletier;48.8748603;2.340218;metro;Rue La Fayette;Quartier du Faubourg-Montmartre;75009
239;Cadet;48.8759778;2.3444894;metro;Rue Saulnier;Quartier du Faubourg-Montmartre;75009
240;Poissonnière;48.8771197;2.3487446;metro;Rue La Fayette;Quartier de Rochechouart;75009
241;Pyramides;48.8657452;2.3344687;metro;Avenue de l'Opéra;Quartier du Palais Royal;75001
242;Porte d'Ivry;48.8216035;2.3693411;metro;Avenue de la Porte d'Ivry;Quartier de la Gare;75013
243;Pont Cardinet;48.8880133;2.3137814;metro;Allée Yvette Guilbert;Quartier des Batignolles;75017
244;Port Royal;48.8400137;2.3370805;metro;Avenue de l'Observatoire;Quartier du Val-de-Grâce;75005
245;Denfert-Rochereau;48.8329934;2.3332221;metro;Esplanade Charles-Axel Guillaumot;Quartier du Petit-Montrouge;75014
246;Gambetta;48.8649327;2.3980541;metro;Avenue Gambetta;Quartier du Père-Lachaise;75020
247;Argentine;48.8753357;2.2901322;metro;Avenue de la Grande Armée;Chaillot;75116
248;Haussmann - Saint-Lazare;48.8749979;2.3286951;metro;Place Georges Berry;Quartier de la Chaussée-d'Antin;75009
249;Courcelles;48.8794066;2.3043565;metro;Boulevard de Courcelles;Quartier de l'Europe;75008
250;Boulainvilliers;48.856567;2.2751737;metro;Villa des Guignières;Quartier de la Muette;75016
251;Porte de Bagnolet;48.8646027;2.407183;metro;Rue Belgrand;Quartier Saint-Fargeau;75020
252;Edgar Quinet;48.84111;2.3250699;metro;Allée Georges Besse;Quartier du Montparnasse;75014
253;Olympiades;48.8270448;2.3664175;metro;Rue de Tolbiac;Quartier de la Gare;75013
254;Porte de Pantin;48.8886574;2.3926771;metro;Avenue Jean Jaurès;Quartier d'Amérique;75019
255;Laumière;48.8851647;2.3794369;metro;Avenue Jean Jaurès;Quartier de la Villette;75019
256;Ourcq;48.8870772;2.38664;metro;Avenue Jean Jaurès;Quartier d'Amérique;75019
257;Porte de Versailles;48.8324338;2.2879537;metro;Esplanade du 9 novembre 1989;Quartier Saint-Lambert;75015
258;Rue du Bac;48.8551812;2.3257736;metro;Quartier Saint-Thomas-d'Aquin;Paris 7e Arrondissement;75007
259;Porte de Clichy;48.8944737;2.3134274;metro;Avenue de la Porte de Clichy;Quartier des Batignolles;75017
260;Pont Cardinet;48.8895133;2.3153423;metro;Rue Mstislav Rostropovitch;Quartier des Batignolles;75017
261;Richelieu - Drouot;48.8719671;2.3392504;metro;Boulevard Haussmann;Quartier du Faubourg-Montmartre;75009
262;Boissière;48.8670421;2.2900911;metro;Avenue Kléber;Chaillot;75116
263;Raspail;48.8389219;2.3307369;metro;Boulevard Raspail;Quartier du Montparnasse;75014
264;Daumesnil;48.8395922;2.3962319;metro;Boulevard de Reuilly;Quartier de Picpus;75012
265;Corvisart;48.8298024;2.3504805;metro;Boulevard Auguste Blanqui;Quartier de la Maison-Blanche;75013
266;Saint-François-Xavier;48.8514517;2.3144205;metro;Boulevard des Invalides;Quartier de l'École Militaire;75007
267;Varenne;48.8569057;2.3150837;metro;Boulevard des Invalides;Quartier des Invalides;75007
268;Porte de Clichy;48.8948169;2.3132665;metro;Avenue de la Porte de Clichy;Quartier des Batignolles;75017
269;Pré Saint-Gervais;48.8802778;2.3988805;metro;Rue Alphonse Aulard;Quartier d'Amérique;75019
270;Reuilly — Diderot;48.8473574;2.3867982;metro;Boulevard Diderot;Quartier de Picpus;75012
271;Porte de Vincennes;48.8473367;2.408086;metro;Cours de Vincennes;Quartier de Charonne;75020
272;Michel-Ange - Auteuil;48.8480025;2.2641679;metro;Rue d'Auteuil;Quartier d'Auteuil;75016
273;Odéon;48.8523043;2.3393706;metro;Boulevard Saint-Germain;Quartier de la Monnaie;75006
274;Liège;48.8796039;2.3270446;metro;Rue d'Amsterdam;Quartier Saint-Georges;75009
275;Campo-Formio;48.8351162;2.3582026;metro;Boulevard de l'Hôpital;Quartier de la Salpêtrière;75013
276;Rambuteau;48.8617648;2.3537854;metro;Rue Beaubourg;Quartier Sainte-Avoye;75003
277;Pernety;48.8339998;2.3181806;metro;Rue Raymond Losserand;Quartier de Plaisance;75014
278;Plaisance;48.8317665;2.3140421;metro;Rue Raymond Losserand;Quartier de Plaisance;75014
279;Maison Blanche;48.8215588;2.3589582;metro;Avenue d'Italie;Quartier de la Maison-Blanche;75013
280;Gaîté;48.8386383;2.3225137;metro;Avenue du Maine;Quartier du Montparnasse;75014
281;Télégraphe;48.8754961;2.3989653;metro;Rue de Belleville;Quartier d'Amérique;75019
282;Temple;48.8664946;2.3607078;metro;Rue de Turbigo;Quartier des Arts-et-Métiers;75003
283;Maison Blanche;48.821569;2.3590197;metro;Avenue d'Italie;Quartier de la Maison-Blanche;75013
284;Cour Saint-Émilion;48.8335432;2.3859654;metro;Rue François Truffaut;Quartier de Bercy;75012
285;George V;48.872076;2.3004214;metro;Avenue des Champs-Élysées;Quartier du Faubourg-du-Roule;75008
286;Louvre - Rivoli;48.860809;2.3411316;metro;Rue de Rivoli;Quartier Saint-Germain-l'Auxerrois;75001
287;Porte d'Italie;48.819054;2.3594056;metro;Avenue d'Italie;Quartier de la Maison-Blanche;75013
288;Degas;48.848958;2.2754115;bus;Avenue de Versailles;Quartier d'Auteuil;75016
289;Musée d'Art Moderne - Palais de Tokyo;48.8629739;2.2954966;bus;Avenue de New York;Chaillot;75016
290;Les Plantes;48.8295614;2.3220688;bus;Rue d'Alésia;Quartier de Plaisance;75014
291;Les Plantes;48.8290722;2.3230781;bus;Rue d'Alésia;Quartier du Petit-Montrouge;75014
292;Cambronne - Lecourbe;48.8423298;2.3028026;bus;Rue Cambronne;Quartier Saint-Lambert;75015
293;Cambronne - Vaugirard;48.8407918;2.3040665;bus;Rue Cambronne;Quartier Necker;75015
294;Miollis;48.8451514;2.3019996;bus;Rue Cambronne;Quartier Necker;75015
295;Cambronne;48.8471851;2.3015826;bus;Rue Cambronne;Quartier Necker;75015
296;Cambronne - Lecourbe;48.8429413;2.3024683;bus;Place Athanase Bassinet;Quartier Necker;75015
297;Frères Voisin;48.8285057;2.2733973;bus;Rue du Colonel Pierre Avia;Quartier de Javel;75015
298;Cambronne - Lecourbe;48.8424677;2.3019742;bus;Rue Lecourbe;Quartier Saint-Lambert;75015
299;Mairie du 15e;48.8418451;2.2998841;bus;Rue Lecourbe;Quartier Saint-Lambert;75015
300;Volontaires - Lecourbe;48.8439901;2.3071137;bus;Rue Lecourbe;Quartier Necker;75015
301;Sèvres - Lecourbe;48.8446505;2.3093262;bus;Rue Lecourbe;Quartier Necker;75015
302;Hôpital des Enfants Malades;48.8466282;2.3161638;bus;Rue de Sèvres;Quartier Necker;75015
303;Cambronne - Vaugirard;48.8404472;2.3046245;bus;Rue de Vaugirard;Quartier Saint-Lambert;75015
304;Pasteur – Lycée Buffon;48.8430483;2.313091;bus;Rue de Vaugirard;Quartier Necker;75015
305;Pasteur - Lycée Buffon;48.8432471;2.3126895;bus;Boulevard Pasteur;Quartier Necker;75015
306;Gare Montparnasse;48.8411926;2.3215121;bus;Rue du Départ;Quartier Necker;75015
307;Michel Debré;48.8522339;2.3309192;bus;Rue du Four;Quartier de Saint-Germain-des-Prés;75006
308;Sèvres - Babylone;48.8516549;2.3278812;bus;Rue de Sèvres;Quartier Saint-Thomas-d'Aquin;75007
309;Michel Debré;48.8517884;2.3306976;bus;Rue du Vieux Colombier;Quartier Notre-Dame-des-Champs;75006
310;Quai de la Rapée;48.8453126;2.3695255;bus;Boulevard Diderot;Quartier des Quinze-Vingts;75012
311;Gare d'Austerlitz;48.8446351;2.3643669;bus;Place Valhubert;Quartier du Jardin des Plantes;75005
312;Gare de Lyon - Diderot;48.8460447;2.372133;bus;Rue de Lyon;Quartier des Quinze-Vingts;75012
313;Sèvres - Babylone;48.8521939;2.326462;bus;Boulevard Raspail;Quartier Saint-Thomas-d'Aquin;75007
314;Mairie du 15e;48.8424229;2.2989616;bus;Rue Pétel;Quartier Saint-Lambert;75015
315;Église Saint-Sulpice;48.8513259;2.3334483;bus;Place Saint-Sulpice;Quartier de l'Odéon;75006
316;Sèvres - Babylone;48.851769;2.3274705;bus;Rue de Sèvres;Quartier Saint-Thomas-d'Aquin;75007
317;Invalides;48.8616635;2.3149201;bus;Rue Robert Esnault-Pelterie;Quartier des Invalides;75007
318;Esplanade des Invalides;48.8598983;2.314402;bus;Sortie Parking Invalides;Quartier des Invalides;75007
319;Pont Alexandre III;48.8627959;2.3145557;bus;Quai d'Orsay;Quartier des Invalides;75007
320;Général de Bollardière;48.8514047;2.3013977;bus;Place Joffre;Quartier de l'École Militaire;75007
321;Général de Bollardière;48.8508814;2.3003953;bus;Avenue de la Motte-Picquet;Quartier de Grenelle;75015
322;Général de Bollardière;48.85155;2.3004421;bus;Avenue de Suffren;Quartier du Gros-Caillou;75007
323;Alésia - Didot;48.8308078;2.3185643;bus;Rue d'Alésia;Quartier de Plaisance;75014
324;Alésia - Didot;48.8306269;2.3187317;bus;Rue d'Alésia;Quartier de Plaisance;75014
325;Colonel Fabien;48.8782993;2.3708169;bus;Rue de Meaux;Quartier de la Villette;75019
326;Vaugirard - Favorites;48.8397095;2.3019345;bus;Rue de Vaugirard;Quartier Saint-Lambert;75015
327;Convention - Vaugirard;48.8375549;2.2958212;bus;Rue de la Convention;Quartier Saint-Lambert;75015
328;Alésia - René Coty;48.8277556;2.3350602;bus;Avenue René Coty;Quartier du Parc-de-Montsouris;75014
329;Labrouste;48.8337381;2.3083597;bus;Rue de Vouillé;Quartier Saint-Lambert;75015
330;Jean Bologne;48.8577268;2.2802415;bus;Rue de Passy;Quartier de la Muette;75016
331;Richelieu - 4 Septembre;48.8692186;2.3380768;bus;Rue du Quatre Septembre;Quartier Vivienne;75002
332;Crimée - Aubervilliers;48.8950879;2.3714758;bus;Rue d'Aubervilliers;Quartier du Pont-de-Flandre;75019
333;Lyon - Ledru-Rollin;48.8488965;2.3721895;bus;Avenue Daumesnil;Quartier des Quinze-Vingts;75012
334;Cambronne - Vaugirard;48.839997;2.3043904;bus;Rue Paul Barruel;Quartier Saint-Lambert;75015
335;Monge - Claude Bernard;48.8388115;2.3499845;bus;Rue Claude Bernard;Quartier du Jardin des Plantes;75005
336;Dupleix;48.8514214;2.291572;bus;Boulevard de Grenelle;Quartier de Grenelle;75015
337;Denfert Rochereau;48.8334944;2.3334291;bus;Esplanade Charles-Axel Guillaumot;Quartier du Petit-Montrouge;75014
338;Place d'Italie - Italie 2;48.8302119;2.3559224;bus;Avenue d'Italie;Quartier de la Maison-Blanche;75013
339;Place d'Italie - Mairie du 13e;48.8323872;2.3547941;bus;Avenue des Gobelins;Quartier de Croulebarbe;75013
340;Patay - Tolbiac;48.8276292;2.3705452;bus;Rue de Tolbiac;Quartier de la Gare;75013
341;Patay - Tolbiac;48.8280361;2.3708966;bus;Rue de Patay;Quartier de la Gare;75013
342;Patay - Tolbiac;48.827823;2.3717668;bus;Rue de Tolbiac;Quartier de la Gare;75013
343;Patay - Tolbiac;48.827301;2.3718432;bus;Rue de Patay;Quartier de la Gare;75013
344;Jeanne d'Arc - Église de la Gare;48.8292814;2.3691462;bus;Rue Jeanne d'Arc;Quartier de la Gare;75013
345;Jeanne d'Arc - Église de la Gare;48.8290223;2.3692788;bus;Rue Jeanne d'Arc;Quartier de la Gare;75013
346;Claude Régaud;48.8216976;2.3730418;bus;Avenue Boutroux;Quartier de la Gare;75013
347;Porte d'Ivry;48.8214165;2.3697681;bus;Avenue de la Porte d'Ivry;Quartier de la Gare;75013
348;Docteur Finlay;48.8518145;2.2901491;bus;Rue Saint-Charles;Quartier de Grenelle;75015
349;Buffon - La Mosquée;48.8417779;2.3558325;bus;Rue Geoffroy Saint-Hilaire;Quartier du Jardin des Plantes;75005
350;Buffon - La Mosquée;48.8408769;2.3559671;bus;Rue Geoffroy Saint-Hilaire;Quartier du Jardin des Plantes;75005
351;Vasco de Gama - Lourmel;48.8377232;2.2819757;bus;Rue Vasco de Gama;Quartier de Javel;75015
352;Lourmel - Félix Faure;48.8392267;2.2824013;bus;Rue de Lourmel;Quartier de Javel;75015
353;Saint-Charles - Balard;48.838724;2.2787238;bus;Rue Saint-Charles;Quartier de Javel;75015
354;Balard;48.8364057;2.2781749;bus;Place Balard;Quartier de Javel;75015
355;Brancion - Vouillé;48.8345348;2.3055831;bus;Rue de Vouillé;Quartier Saint-Lambert;75015
356;Raffet;48.8533371;2.2619422;bus;Boulevard Suchet;Quartier d'Auteuil;75016
357;Convention - Vaugirard;48.8370719;2.2967038;bus;Rue de la Convention;Quartier Saint-Lambert;75015
358;Péclet;48.8428726;2.2982525;bus;Rue Léon Lhermitte;Quartier Saint-Lambert;75015
359;Tolbiac - Baudricourt;48.8266632;2.3642995;bus;Rue de Tolbiac;Quartier de la Gare;75013
360;Tolbiac - Baudricourt;48.8268069;2.3644285;bus;Rue de Tolbiac;Quartier de la Gare;75013
361;Glacière - Tolbiac;48.8267282;2.3419955;bus;Rue de la Glacière;Quartier de la Maison-Blanche;75013
362;Glacière - Tolbiac;48.8264613;2.3412468;bus;Rue d'Alésia;Quartier du Parc-de-Montsouris;75014
363;Glacière - Tolbiac;48.8264236;2.3423158;bus;Rue de Tolbiac;Quartier de la Maison-Blanche;75013
364;Saint-Michel;48.8536122;2.3437913;bus;Place Saint-Michel;Quartier de la Monnaie;75006
365;Pyrénées - Bagnolet;48.858877;2.4023128;bus;Rue des Pyrénées;Quartier de Charonne;75020
366;Louis Braille;48.8397002;2.4034407;bus;Rue Louis Braille;Quartier du Bel-Air;75012
367;Saint-Ambroise;48.8613013;2.3744391;bus;Boulevard Voltaire;Quartier Saint-Ambroise;75011
368;Oberkampf - Richard Lenoir;48.8636497;2.3704915;bus;Boulevard Voltaire;Quartier Saint-Ambroise;75011
369;Jean-Pierre Timbaud;48.8654167;2.3675306;bus;Boulevard Voltaire;Quartier de la Folie-Méricourt;75011
370;République - Voltaire;48.8662683;2.3660997;bus;Boulevard Voltaire;Quartier de la Folie-Méricourt;75011
371;Porte d'Italie;48.819614;2.3594521;bus;Avenue d'Italie;Quartier de la Maison-Blanche;75013
372;Jussieu;48.8461657;2.3546275;bus;Place Jussieu;Quartier Saint-Victor;75005
373;Square Caulaincourt;48.8895461;2.3352459;bus;Rue Caulaincourt;Quartier des Grandes-Carrières;75018
374;Square Caulaincourt;48.8894553;2.3359673;bus;Rue Caulaincourt;Quartier des Grandes-Carrières;75018
375;Gare Saint-Lazare;48.8750886;2.3247693;bus;Rue de Rome;Quartier de la Madeleine;75008
376;Porte de Vanves;48.8273299;2.3050575;bus;Place de la Porte de Vanves;Quartier de Plaisance;75014
377;Bosquet - Grenelle;48.856735;2.3043968;bus;Avenue Bosquet;Quartier du Gros-Caillou;75007
378;Bosquet - Saint-Dominique;48.8584313;2.3035608;bus;Avenue Bosquet;Quartier du Gros-Caillou;75007
379;École Militaire;48.8548656;2.3055095;bus;Avenue Bosquet;Quartier du Gros-Caillou;75007
380;Porte Molitor;48.8454777;2.2554572;bus;Boulevard d'Auteuil;Quartier d'Auteuil;75016
381;Porte Molitor;48.8459237;2.2562291;bus;Avenue du Général Sarrail;Quartier d'Auteuil;75016
382;Amiral Mouchez - Charbonnel;48.8223493;2.3419861;bus;Rue de l'Amiral Mouchez;Quartier de la Maison-Blanche;75013
383;Place des Fêtes;48.8775821;2.394214;bus;Rue Louise Thuliez;Quartier d'Amérique;75019
384;Place des Fêtes;48.8769107;2.3925209;bus;Rue des Fêtes;Quartier d'Amérique;75019
385;Pixérécourt;48.8758906;2.3949846;bus;Rue Compans;Quartier d'Amérique;75019
386;Pixérécourt;48.87558;2.3949365;bus;Rue Compans;Quartier d'Amérique;75019
387;Cuvier - Jardin des Plantes;48.8440363;2.3549671;bus;Paris 5e Arrondissement;Paris;75005
388;Cuvier - Jardin des Plantes;48.8438208;2.3548148;bus;Rue Linné;Quartier Saint-Victor;75005
389;Jussieu;48.8463892;2.354382;bus;Rue Linné;Quartier Saint-Victor;75005
390;Jenner - Jeanne d'Arc;48.8361992;2.358865;bus;Boulevard de l'Hôpital;Quartier de la Salpêtrière;75013
391;Jenner - Jeanne d'Arc;48.8361724;2.3591424;bus;Boulevard de l'Hôpital;Quartier de la Salpêtrière;75013
392;Saint-Marcel - Jeanne d'Arc;48.8387053;2.3570294;bus;Rue Geoffroy Saint-Hilaire;Quartier du Jardin des Plantes;75005
393;Saint-Marcel - Jeanne d'Arc;48.8381506;2.3564225;bus;Boulevard Saint-Marcel;Quartier de la Salpêtrière;75013
394;Brochant - Cardinet;48.8912514;2.3180377;bus;Rue Cardinet;Quartier des Épinettes;75017
395;Parc Martin Luther King;48.8894988;2.3164221;bus;Rue Cardinet;Quartier des Batignolles;75017
396;Pont Cardinet;48.8876554;2.314435;bus;Rue Cardinet;Quartier des Batignolles;75017
397;Place de Clichy;48.8834887;2.3280195;bus;Boulevard de Clichy;Quartier Saint-Georges;75009
398;Pont Cardinet - Batignolles;48.8875818;2.3175042;bus;Place Charles Fillion;Quartier des Batignolles;75017
399;Lobligeois;48.8862467;2.3188432;bus;Rue des Batignolles;Quartier des Batignolles;75017
400;Parc Martin Luther King;48.8889945;2.3161087;bus;Rue Cardinet;Quartier des Batignolles;75017
401;Brochant - Cardinet;48.8912412;2.3182914;bus;Rue Cardinet;Quartier des Épinettes;75017
402;Rue des Moines;48.8904358;2.3205767;bus;Avenue de Clichy;Quartier des Épinettes;75017
403;La Fourche;48.8878006;2.3255735;bus;Avenue de Saint-Ouen;Quartier des Épinettes;75017
404;Jouffroy d'Abbans - Malesherbes;48.8848492;2.3064953;bus;Rue Jouffroy d'Abbans;Quartier de la Plaine-de-Monceau;75017
405;Jouffroy d'Abbans - Villiers;48.8838357;2.3042691;bus;Avenue de Villiers;Quartier de la Plaine-de-Monceau;75017
406;Wagram – Courcelles;48.8813537;2.3003856;bus;Avenue de Wagram;Quartier de la Plaine-de-Monceau;75017
407;Ternes;48.8775401;2.2986435;bus;Rue du Faubourg Saint-Honoré;Quartier du Faubourg-du-Roule;75008
408;Charles de Gaulle - Étoile;48.8748496;2.297394;bus;Avenue Hoche;Quartier du Faubourg-du-Roule;75008
409;La Boétie - Champs-Élysées;48.8704345;2.3060391;bus;Avenue des Champs-Élysées;Quartier du Faubourg-du-Roule;75008
410;Falguière;48.8366159;2.3104662;bus;Rue Falguière;Quartier Necker;75015
411;Guy Môquet;48.892939;2.326773;bus;Rue Guy Môquet;Quartier des Épinettes;75017
412;Guy Môquet;48.8931223;2.3281296;bus;Rue Championnet;Quartier des Grandes-Carrières;75018
413;Porte de Saint-Ouen;48.8975222;2.3299275;bus;Boulevard Ney;Quartier des Grandes-Carrières;75018
414;Moines - Davy;48.8922272;2.3240507;bus;Rue Guy Môquet;Quartier des Épinettes;75017
415;Moines - Davy;48.8921486;2.3230976;bus;Rue Guy Môquet;Quartier des Épinettes;75017
416;Porte Maillot;48.8781138;2.2797351;bus;Voie AS/16;Quartier de la Porte-Dauphine;75116
417;Porte des Ternes - Anny Flore;48.8806176;2.2839844;bus;Boulevard Pershing;Quartier des Ternes;75017
418;Porte de Champerret – Stéphane Mallarmé;48.8859261;2.2916943;bus;Avenue Stéphane Mallarmé;Quartier de la Plaine-de-Monceau;75017
419;Porte de Champerret;48.8858165;2.2942158;bus;Boulevard Berthier;Quartier de la Plaine-de-Monceau;75017
420;Porte de Champerret;48.8863332;2.2929786;bus;Avenue Stéphane Mallarmé;Quartier de la Plaine-de-Monceau;75017
421;Porte de Courcelles;48.8874458;2.2942814;bus;Avenue Stéphane Mallarmé;Quartier de la Plaine-de-Monceau;75017
422;Porte de Courcelles;48.8869949;2.2950351;bus;Rue de Courcelles;Quartier de la Plaine-de-Monceau;75017
423;Marguerite Long;48.8896279;2.3034455;bus;Boulevard Berthier;Quartier de la Plaine-de-Monceau;75017
424;Wattignies - Gravelle;48.8355974;2.3973505;bus;Rue de Wattignies;Quartier de Picpus;75012
425;Charenton - Jardiniers;48.8334094;2.3951024;bus;Rue de Charenton;Quartier de Bercy;75012
426;Porte de Reuilly;48.8342855;2.4004288;bus;Avenue du Général Michel Bizot;Quartier de Picpus;75012
427;Porte de Charenton;48.8322566;2.3976172;bus;Avenue du Général Michel Bizot;Quartier de Picpus;75012
428;Dijon - Lachambeaudie;48.8356048;2.3860649;bus;Rue de la Nativité;Quartier de Bercy;75012
429;Dugommier;48.8389717;2.3886763;bus;Boulevard de Bercy;Quartier de Bercy;75012
430;Dugommier;48.8384864;2.3884977;bus;Boulevard de Bercy;Quartier de Bercy;75012
431;Nicolai;48.8350627;2.3929306;bus;Rue de Charenton;Quartier de Bercy;75012
432;Cluny;48.8511477;2.3438069;bus;Boulevard Saint-Germain;Quartier de la Sorbonne;75005
433;Brancion - Vouillé;48.8348982;2.3047212;bus;Rue de Vouillé;Quartier Saint-Lambert;75015
434;Brancion - Vouillé;48.8354693;2.3059122;bus;Rue Brancion;Quartier Saint-Lambert;75015
435;Place d'Italie - Mairie du XIIIe;48.8325099;2.3564265;bus;Boulevard de l'Hôpital;Quartier de la Salpêtrière;75013
436;Port Royal - Berthollet;48.8372769;2.3453746;bus;Rue de la Glacière;Quartier de Croulebarbe;75013
437;Port Royal - Berthollet;48.8373952;2.3460949;bus;Boulevard de Port-Royal;Quartier de Croulebarbe;75013
438;Port Royal - Berthollet;48.8379605;2.3456162;bus;Rue Berthollet;Quartier du Val-de-Grâce;75005
439;Les Gobelins;48.8368868;2.352293;bus;Boulevard Saint-Marcel;Quartier de la Salpêtrière;75013
440;Victor Hugo;48.8280213;2.2728397;bus;Boulevard des Frères Voisin;Quartier de Javel;75015
441;Berthollet - Vauquelin;48.8406165;2.3454041;bus;Rue Claude Bernard;Quartier du Val-de-Grâce;75005
442;Feuillantines;48.8416124;2.3435087;bus;Rue Gay-Lussac;Quartier du Val-de-Grâce;75005
443;Saint-Jacques - Gay-Lussac;48.8442264;2.3421912;bus;Rue Gay-Lussac;Quartier du Val-de-Grâce;75005
444;Luxembourg;48.8465718;2.3410087;bus;Rue Gay-Lussac;Quartier du Val-de-Grâce;75005
445;Cluny;48.8500936;2.343422;bus;Rue des Écoles;Quartier de la Sorbonne;75005
446;Dante;48.8505979;2.3460921;bus;Boulevard Saint-Germain;Quartier de la Sorbonne;75005
447;Les Alpes;48.831935;2.359608;bus;Boulevard Vincent Auriol;Quartier de la Gare;75013
448;Charenton - Wattignies;48.8372482;2.3905912;bus;Rue Proudhon;Quartier de Bercy;75012
449;Radio France;48.8531568;2.2797641;bus;Rue du Ranelagh;Quartier de la Muette;75016
450;Porte de Clignancourt;48.8978806;2.3452784;bus;Boulevard Ney;Quartier de Clignancourt;75018
451;Les Écoles;48.8496564;2.3422322;bus;Boulevard Saint-Michel;Quartier de l'Odéon;75006
452;Les Écoles;48.8498541;2.342514;bus;Boulevard Saint-Michel;Quartier de la Sorbonne;75005
453;Alma - Marceau;48.8650774;2.3027492;bus;Paris 8e Arrondissement;Paris;75008
454;Scheffer;48.8612248;2.2843543;bus;Avenue Paul Doumer;Quartier de la Muette;75116
455;Scheffer;48.8611818;2.2837696;bus;Avenue Paul Doumer;Quartier de la Muette;75116
456;Saint-Michel - Saint-Germain;48.8519282;2.3433897;bus;Boulevard Saint-Michel;Quartier de la Monnaie;75006
457;Cité - Parvis Notre-Dame;48.8549237;2.3477855;bus;Place Louis Lépine;Quartier Les Îles;75004
458;Louvre - Étienne Marcel;48.8651536;2.3438914;bus;Rue Étienne Marcel;Quartier du Mail;75002
459;Étienne Marcel - Montmartre;48.8648952;2.3444365;bus;Rue Étienne Marcel;Quartier Les Halles;75001
460;Victoires;48.8659426;2.3405257;bus;Rue la Feuillade;Quartier Vivienne;75002
461;Charles Michels;48.8462766;2.2862472;bus;Rue des Entrepreneurs;Quartier de Javel;75015
462;Richelieu - 4 Septembre;48.8700786;2.3390402;bus;Rue de Richelieu;Quartier Vivienne;75002
463;Bourse;48.8686991;2.3407908;bus;Place de la Bourse;Quartier Vivienne;75002
464;Louvre - Étienne Marcel;48.8655238;2.3433148;bus;Rue du Louvre;Quartier du Mail;75002
465;La Tombe Issoire;48.8277565;2.3319745;bus;Rue d'Alésia;Quartier du Petit-Montrouge;75014
466;Charenton - Wattignies;48.8371827;2.3914709;bus;Rue de Charenton;Quartier de Picpus;75012
467;Étienne Marcel - Montmartre;48.8647258;2.3456776;bus;Rue Tiquetonne;Quartier du Mail;75002
468;Réaumur - Sébastopol;48.8665409;2.3508119;bus;Rue Réaumur;Quartier de Bonne-Nouvelle;75002
469;Pont Sully - Quai de Béthune;48.8502634;2.3592827;bus;Boulevard Henri IV;Quartier Les Îles;75004
470;Châtelet;48.8580533;2.3480821;bus;Boulevard de Sébastopol;Quartier Saint-Merri;75004
471;Châtelet;48.8582968;2.3482191;bus;Boulevard de Sébastopol;Quartier Saint-Merri;75004
472;Pont Marie;48.8538053;2.35671;bus;Quartier Saint-Gervais;Paris 4e Arrondissement;75004
473;Rue Vieille du Temple - Mairie du 4e;48.8561354;2.3575146;bus;Rue de Rivoli;Quartier Saint-Gervais;75004
474;Châtelet;48.8577201;2.3480868;bus;Avenue Victoria;Quartier Saint-Merri;75004
475;Botzaris;48.8792548;2.389757;bus;Rue de Crimée;Quartier d'Amérique;75019
476;Archives - Rambuteau;48.8601661;2.3565322;bus;Rue Rambuteau;Quartier Saint-Merri;75004
477;La Réunion;48.8574275;2.3991581;bus;Rue de Bagnolet;Quartier de Charonne;75020
478;Ramus;48.8620854;2.400206;bus;Rue des Pyrénées;Quartier du Père-Lachaise;75020
479;Ramus;48.861426;2.4001621;bus;Rue des Pyrénées;Quartier du Père-Lachaise;75020
480;Gambetta - Pyrénées;48.864469;2.398906;bus;Rue des Pyrénées;Quartier du Père-Lachaise;75020
481;Maraîchers;48.8530029;2.4060914;bus;Rue des Pyrénées;Quartier de Charonne;75020
482;Maraîchers;48.8522579;2.4060752;bus;Rue des Pyrénées;Quartier de Charonne;75020
483;Cours de Vincennes;48.8481835;2.4065736;bus;Rue des Pyrénées;Quartier de Charonne;75020
484;Cours de Vincennes;48.8480869;2.4062423;bus;Rue Mounet-Sully;Quartier de Charonne;75020
485;La Réunion;48.8577657;2.399557;bus;Rue de Bagnolet;Quartier du Père-Lachaise;75020
486;Pyrénées - Bagnolet;48.8595686;2.4017103;bus;Rue des Pyrénées;Quartier du Père-Lachaise;75020
487;Pyrénées - Bagnolet;48.8594294;2.4027648;bus;Rue de Bagnolet;Quartier de Charonne;75020
488;Pyrénées - Bagnolet;48.8594221;2.4024764;bus;Rue de Bagnolet;Quartier du Père-Lachaise;75020
489;Archives - Rambuteau;48.8598337;2.3567019;bus;Rue des Archives;Quartier Saint-Gervais;75004
490;Rue Vieille du Temple;48.8587674;2.3585491;bus;Place Monique Antoine;Quartier Saint-Gervais;75004
491;Place des Vosges;48.8563513;2.3645998;bus;Rue des Francs Bourgeois;Quartier de l'Arsenal;75004
492;Birague;48.8539074;2.3652618;bus;Rue Saint-Antoine;Quartier de l'Arsenal;75004
493;Sully - Morland;48.8512399;2.3630751;bus;Boulevard Henri IV;Quartier de l'Arsenal;75004
494;Sully - Morland;48.8515209;2.36208;bus;Quai des Célestins;Quartier de l'Arsenal;75004
495;Bastille - Henri IV;48.8528348;2.3677251;bus;Boulevard Henri IV;Quartier de l'Arsenal;75004
496;Sébastopol - Étienne Marcel;48.8632045;2.3514764;bus;Rue aux Ours;Quartier Sainte-Avoye;75003
497;Grenier Saint-Lazare - Quartier de l'Horloge;48.862838;2.3530718;bus;Rue du Grenier Saint-Lazare;Quartier Sainte-Avoye;75003
498;Grenier Saint-Lazare - Quartier de l'Horloge;48.8629143;2.3542841;bus;Rue Beaubourg;Quartier Sainte-Avoye;75003
499;Turbigo - République;48.8666422;2.3610525;bus;Rue de Turbigo;Quartier des Arts-et-Métiers;75003
500;Arts et Métiers;48.8651952;2.356951;bus;Rue Réaumur;Quartier des Arts-et-Métiers;75003
501;Place des Vosges;48.856758;2.3644946;bus;Rue de Turenne;Quartier des Archives;75003
502;Buffon - Jardin des Plantes;48.8421032;2.3593721;bus;Rue Buffon;Quartier du Jardin des Plantes;75005
503;Château de Vincennes;48.8442101;2.4403284;bus;Avenue de Nogent;Centre Ville;94300
504;Plaisance - Hôpital Saint-Joseph;48.831568;2.3149007;bus;Rue d'Alésia;Quartier de Plaisance;75014
505;Plaisance - Hôpital Saint-Joseph;48.8319414;2.3138342;bus;Rue d'Alésia;Quartier de Plaisance;75014
506;Vercingétorix;48.8330154;2.3109762;bus;Rue d'Alésia;Quartier de Plaisance;75014
507;Vercingétorix;48.8325273;2.3118658;bus;Rue d'Alésia;Quartier de Plaisance;75014
508;Alésia - Didot;48.8307202;2.3195057;bus;Rue Didot;Quartier de Plaisance;75014
509;Montparnasse 2 - Gare TGV;48.838825;2.317085;bus;Place des Cinq Martyrs du Lycée Buffon;Quartier Necker;75015
510;Place de Catalogne;48.8378754;2.3190005;bus;Rue du Commandant René Mouchotte;Quartier de Plaisance;75014
511;Pernety;48.8323703;2.3205855;bus;Quartier de Plaisance;Paris 14e Arrondissement;75014
512;Château;48.8339772;2.3217898;bus;Place de Moro-Giafferi;Quartier de Plaisance;75014
513;Losserand - Maine;48.83648;2.3227216;bus;Rue Raymond Losserand;Quartier de Plaisance;75014
514;Gaité;48.8380824;2.3228757;bus;Avenue du Maine;Quartier du Montparnasse;75014
515;Gare Montparnasse;48.8409432;2.3217085;bus;Avenue du Maine;Quartier du Montparnasse;75014
516;Montparnasse - Rue du Départ;48.8428696;2.3239269;bus;Rue du Départ;Quartier du Montparnasse;75014
517;Montparnasse;48.8435435;2.323681;bus;Quartier Necker;Paris 15e Arrondissement;75015
518;Vavin;48.8422422;2.3289655;bus;Boulevard du Montparnasse;Quartier Notre-Dame-des-Champs;75006
519;Losserand - Maine;48.8358029;2.3237262;bus;Avenue du Maine;Quartier de Plaisance;75014
520;Losserand - Maine;48.8365737;2.3231504;bus;Rue Raymond Losserand;Quartier de Plaisance;75014
521;Saint-Germain-des-Prés;48.853435;2.3344131;bus;Place Jacques Copeau;Quartier de Saint-Germain-des-Prés;75006
522;Luxembourg;48.8475144;2.3400962;bus;Place Edmond Rostand;Quartier de l'Odéon;75006
523;Auguste Comte;48.8441245;2.338561;bus;Rue Auguste Comte;Quartier de l'Odéon;75006
524;Sèvres - Babylone;48.8509283;2.3268242;bus;Boulevard Raspail;Quartier Notre-Dame-des-Champs;75006
525;Sèvres - Babylone;48.8510118;2.3262364;bus;Rue de Sèvres;Quartier Notre-Dame-des-Champs;75006
526;Bréa - Notre-Dame-des-Champs;48.8437235;2.3301587;bus;Rue Vavin;Quartier Notre-Dame-des-Champs;75006
527;Guynemer - Vavin;48.845168;2.3320373;bus;Rue d'Assas;Quartier Notre-Dame-des-Champs;75006
528;Vavin;48.8415273;2.3298976;bus;Boulevard Raspail;Quartier du Montparnasse;75014
529;Vavin;48.8415819;2.3295984;bus;Boulevard Raspail;Quartier du Montparnasse;75014
530;Duroc;48.8473038;2.3165088;bus;Boulevard des Invalides;Quartier de l'École Militaire;75007
531;Gare du Nord;48.8816427;2.357553;bus;Rue du Faubourg Saint-Denis;Quartier Saint-Vincent-de-Paul;75010
532;Gare du Nord;48.8810006;2.3572643;bus;Rue du Faubourg Saint-Denis;Quartier Saint-Vincent-de-Paul;75010
533;Gare du Nord;48.8813439;2.3574217;bus;Rue du Faubourg Saint-Denis;Quartier Saint-Vincent-de-Paul;75010
534;Les Halles - Centre Georges Pompidou;48.8610207;2.3497198;bus;Boulevard de Sébastopol;Quartier Saint-Merri;75004
535;Magenta - Saint-Martin;48.8745205;2.358599;bus;Rue du Faubourg Saint-Martin;Quartier de la Porte-Saint-Martin;75010
536;Gare de l'Est;48.8763129;2.3567488;bus;Rue du 8 Mai 1945;Quartier Saint-Vincent-de-Paul;75010
537;Porte d'Orléans;48.8236674;2.3271409;bus;Rue du Père Corentin;Quartier du Petit-Montrouge;75014
538;Alésia - Maine;48.8292835;2.3279543;bus;Avenue du Général Leclerc;Quartier du Petit-Montrouge;75014
539;Anjou - Chauveau-Lagarde;48.8722812;2.3214912;bus;Boulevard Malesherbes;Quartier de la Madeleine;75008
540;Anjou - Chauveau-Lagarde;48.8723533;2.3218303;bus;Boulevard Malesherbes;Quartier de la Madeleine;75008
541;Porte d'Orléans-Métro;48.822603;2.3250939;bus;Place du 25 Août 1944;Quartier du Petit-Montrouge;75014
542;Mairie du 14e Arrondissement;48.8320389;2.3253309;bus;Quartier du Petit-Montrouge;Paris 14e Arrondissement;75014
543;Château - Mairie du 14e;48.833909;2.3245068;bus;Avenue du Maine;Quartier de Plaisance;75014
544;Saint-Augustin;48.8742705;2.3200977;bus;Boulevard Malesherbes;Quartier de la Madeleine;75008
545;Saint-Augustin;48.8746128;2.3213849;bus;Boulevard Haussmann;Quartier de la Madeleine;75008
546;Gare Saint-Lazare;48.8746827;2.3251473;bus;Rue de Rome;Quartier de la Madeleine;75008
547;Gare Saint-Lazare;48.8753445;2.325492;bus;Rue Saint-Lazare;Quartier de la Madeleine;75008
548;Pasquier - Anjou;48.8740995;2.3251548;bus;Boulevard Haussmann;Quartier de la Madeleine;75008
549;Gare Saint-Lazare - Rome;48.8774036;2.3230566;bus;Rue de Rome;Quartier de l'Europe;75008
550;Gare Saint-Lazare - Rome;48.8770427;2.3232706;bus;Rue de Rome;Quartier de l'Europe;75008
551;Gare Saint-Lazare - Budapest;48.8768949;2.3268456;bus;Rue d'Amsterdam;Quartier de l'Europe;75008
552;Place de Clichy;48.8828171;2.3270887;bus;Rue d'Amsterdam;Quartier de l'Europe;75008
553;Turin - Batignolles;48.8827827;2.3246677;bus;Boulevard des Batignolles;Quartier de l'Europe;75008
554;Place de Clichy;48.882888;2.3264378;bus;Rue de Saint-Pétersbourg;Quartier de l'Europe;75008
555;Place de Clichy;48.8836309;2.3269779;bus;Quartier des Batignolles;Paris 17e Arrondissement;75017
556;Place de Clichy - Caulaincourt;48.8841428;2.3284643;bus;Boulevard de Clichy;Quartier des Grandes-Carrières;75018
557;Place de Clichy - Caulaincourt;48.8843725;2.3288139;bus;Boulevard de Clichy;Quartier des Grandes-Carrières;75018
558;Boulevard des Batignolles;48.8832223;2.3238278;bus;Rue des Batignolles;Quartier des Batignolles;75017
559;Europe;48.8791101;2.3219444;bus;Rue de Rome;Quartier de l'Europe;75008
560;Europe;48.8791163;2.3221422;bus;Rue de Rome;Quartier de l'Europe;75008
561;Rome - Batignolles;48.8823288;2.3205789;bus;Boulevard des Batignolles;Quartier des Batignolles;75017
562;Haussmann - Courcelles;48.8749808;2.3105016;bus;Boulevard Haussmann;Quartier de l'Europe;75008
563;Haussmann - Courcelles;48.8748802;2.3080662;bus;Boulevard Haussmann;Quartier du Faubourg-du-Roule;75008
564;Saint-Philippe du Roule;48.873255;2.31186;bus;Rue La Boétie;Quartier de l'Europe;75008
565;Saint-Philippe-du-Roule;48.8734263;2.3101443;bus;Avenue Myron Herrick;Quartier du Faubourg-du-Roule;75008
566;Châtelet;48.8576358;2.3484331;bus;Avenue Victoria;Quartier Saint-Merri;75004
567;Cité - Palais de Justice;48.8558512;2.3461245;bus;Boulevard du Palais;Quartier Saint-Germain-l'Auxerrois;75001
568;Denfert-Rochereau;48.833982;2.3319884;bus;Avenue du Colonel Henri Rol Tanguy;Quartier du Montparnasse;75014
569;Luxembourg;48.8463611;2.3401536;bus;Boulevard Saint-Michel;Quartier de l'Odéon;75006
570;Rond-Point des Champs-Élysées;48.8681301;2.3102803;bus;Paris 8e Arrondissement;Paris;75008
571;Pont des Invalides - Place de Finlande;48.8619731;2.3104599;bus;Boulevard de la Tour Maubourg;Quartier des Invalides;75007
572;École Militaire;48.854011;2.3062926;bus;Avenue Duquesne;Quartier de l'École Militaire;75007
573;Matignon - Saint-Honoré;48.872415;2.3147319;bus;Avenue Matignon;Quartier de la Madeleine;75008
574;Haussmann - Miromesnil;48.8747104;2.3145009;bus;Avenue Percier;Quartier de l'Europe;75008
575;Rond-Point des Champs-Élysées - Matignon;48.8695595;2.3114571;bus;Allée Jeannine Worms;Quartier des Champs-Élysées;75008
576;École Militaire;48.8543822;2.3061127;bus;Place de l'École Militaire;Quartier du Gros-Caillou;75007
577;El Salvador;48.8510149;2.3113318;bus;Avenue Duquesne;Quartier de l'École Militaire;75007
578;La Tour Maubourg - Saint-Dominique;48.860356;2.3102953;bus;Boulevard de la Tour Maubourg;Quartier des Invalides;75007
579;Palais de la Découverte;48.8655908;2.310413;bus;Paris 8e Arrondissement;Paris;75008
580;Maine - Vaugirard;48.845831;2.3188284;bus;Boulevard du Montparnasse;Quartier Notre-Dame-des-Champs;75006
581;Invalides - La Tour-Maubourg;48.8568059;2.3093976;bus;Avenue de la Motte-Picquet;Quartier du Gros-Caillou;75007
582;Hôpital des Enfants Malades;48.8465829;2.3155696;bus;Rue de Sèvres;Quartier Necker;75015
583;École Militaire;48.8547162;2.3063203;bus;Avenue de la Motte-Picquet;Quartier du Gros-Caillou;75007
584;Duquesne - Lowendal;48.8530122;2.3082414;bus;Avenue Duquesne;Quartier de l'École Militaire;75007
585;Montparnasse - Alençon;48.8444972;2.3223673;bus;Boulevard du Montparnasse;Quartier Necker;75015
586;Saint-Augustin;48.8747038;2.3206937;bus;Boulevard Haussmann;Quartier de la Madeleine;75008
587;La Boétie - Miromesnil;48.8740364;2.3161433;bus;Rue La Boétie;Quartier de l'Europe;75008
588;Rond-Point des Champs-Élysées;48.8684869;2.3100427;bus;Promenade des Champs-Élysées;Quartier des Champs-Élysées;75008
589;Rond-Point des Champs-Élysées - Franklin D. Roosevelt;48.8693912;2.3099934;bus;Avenue Franklin Delano Roosevelt;Quartier du Faubourg-du-Roule;75008
590;Saint-Georges - Provence;48.8739205;2.3367337;bus;Rue La Fayette;Quartier de la Chaussée-d'Antin;75009
591;Gare du Nord;48.8808925;2.3575221;bus;Rue du Faubourg Saint-Denis;Quartier Saint-Vincent-de-Paul;75010
592;Capucines - Caumartin;48.8699981;2.3290181;bus;Boulevard des Capucines;Quartier Gaillon;75002
593;Cadet;48.8756103;2.3431986;bus;Rue La Fayette;Quartier du Faubourg-Montmartre;75009
594;Rond-Point des Champs-Élysées;48.8683675;2.309534;bus;Rond-Point des Champs-Élysées - Marcel Dassault;Quartier des Champs-Élysées;75008
595;La Fayette - Magenta;48.8786533;2.3548092;bus;Rue La Fayette;Quartier Saint-Vincent-de-Paul;75010
596;Opéra - Rue de la Paix;48.8704439;2.3315732;bus;Boulevard des Capucines;Quartier de la Chaussée-d'Antin;75009
597;Le Peletier;48.8745266;2.3390245;bus;Rue La Fayette;Quartier du Faubourg-Montmartre;75009
598;Square Montholon;48.8768893;2.3480727;bus;Rue La Fayette;Quartier de Rochechouart;75009
599;Madeleine;48.8694376;2.3257833;bus;Boulevard de la Madeleine;Quartier Vendôme;75001
600;Monceau;48.8804185;2.3095834;bus;Place de la République Dominicaine;Quartier de la Plaine-de-Monceau;75017
601;Monceau;48.8803381;2.3082693;bus;Boulevard de Courcelles;Quartier de la Plaine-de-Monceau;75017
602;Courcelles;48.879133;2.3036063;bus;Boulevard de Courcelles;Quartier de l'Europe;75008
603;Magenta - Maubeuge;48.8802871;2.3513477;bus;Rue de Maubeuge;Quartier Saint-Vincent-de-Paul;75010
604;Madeleine;48.8699299;2.3231867;bus;Boulevard Malesherbes;Quartier de la Madeleine;75008
605;Madeleine;48.8702254;2.3237048;bus;Place de la Madeleine;Quartier de la Madeleine;75008
606;Madeleine - Vignon;48.8706707;2.3258669;bus;Rue de Sèze;Quartier de la Madeleine;75008
607;Opéra - Scribe;48.8725913;2.3308628;bus;Rue Scribe;Quartier de la Chaussée-d'Antin;75009
608;Capucines - Caumartin;48.8702642;2.3294887;bus;Boulevard des Capucines;Quartier de la Chaussée-d'Antin;75009
609;Chaussée d'Antin;48.8729636;2.3337374;bus;Boulevard Haussmann;Quartier de la Chaussée-d'Antin;75009
610;Le Peletier - Haussmann;48.8725189;2.3383631;bus;Rue Le Peletier;Quartier du Faubourg-Montmartre;75009
611;Maubeuge - Rochechouart;48.8781255;2.3444446;bus;Rue de Maubeuge;Quartier de Rochechouart;75009
612;Châteaudun - Lamartine;48.8767051;2.3414775;bus;Rue de Maubeuge;Quartier de Rochechouart;75009
613;Condorcet;48.8792877;2.3480192;bus;Rue de Maubeuge;Quartier de Rochechouart;75009
614;Montaigne - François 1er;48.8668906;2.3058767;bus;Avenue Montaigne;Quartier des Champs-Élysées;75008
615;Rond-Point des Champs-Élysées;48.868327;2.3090072;bus;Avenue Montaigne;Quartier des Champs-Élysées;75008
616;Concorde - Cours la Reine;48.866147;2.3194928;bus;Avenue des Champs-Élysées;Quartier des Champs-Élysées;75008
617;Champs-Élysées - Clemenceau;48.8682075;2.3130599;bus;Avenue des Champs-Élysées;Quartier des Champs-Élysées;75008
618;Rond-Point des Champs-Élysées;48.8687441;2.3094937;bus;Avenue Montaigne;Quartier des Champs-Élysées;75008
619;La Tour Maubourg - Saint-Dominique;48.8596836;2.3100205;bus;Boulevard de la Tour Maubourg;Quartier du Gros-Caillou;75007
620;Invalides - La Tour-Maubourg;48.8569563;2.309073;bus;Avenue de la Motte-Picquet;Quartier du Gros-Caillou;75007
621;Palais de la Découverte;48.8651594;2.3102159;bus;Avenue Franklin Delano Roosevelt;Quartier des Champs-Élysées;75008
622;Rue Cler;48.8556204;2.3073399;bus;Avenue de la Motte-Picquet;Quartier du Gros-Caillou;75007
623;Pont des Invalides - Place de Finlande;48.8619761;2.3102388;bus;Boulevard de la Tour Maubourg;Quartier du Gros-Caillou;75007
624;Montparnasse - Alençon;48.844238;2.3223913;bus;Boulevard du Montparnasse;Quartier Necker;75015
625;Maine - Vaugirard;48.8456358;2.3186514;bus;Boulevard du Montparnasse;Quartier Necker;75015
626;El Salvador;48.850871;2.3112286;bus;Avenue Duquesne;Quartier de l'École Militaire;75007
627;Breteuil;48.847049;2.3110926;bus;Place de Breteuil;Quartier Necker;75015
628;Duroc;48.8471501;2.316246;bus;Boulevard des Invalides;Quartier de l'École Militaire;75007
629;Mairie du 14e Arrondissement;48.8320545;2.3249817;bus;Avenue du Maine;Quartier du Petit-Montrouge;75014
630;Château - Mairie du 14e;48.8336038;2.3243882;bus;Avenue du Maine;Quartier de Plaisance;75014
631;Alésia - Maine;48.8284644;2.3264909;bus;Avenue du Maine;Quartier du Petit-Montrouge;75014
632;Mouton - Duvernet;48.8305877;2.3293729;bus;Avenue du Général Leclerc;Quartier du Petit-Montrouge;75014
633;Luxembourg;48.845719;2.340083;bus;Boulevard Saint-Michel;Quartier du Val-de-Grâce;75005
634;Observatoire - Port Royal;48.8392131;2.3368481;bus;Avenue de l'Observatoire;Quartier du Montparnasse;75014
635;Observatoire - Port Royal;48.8393875;2.3372353;bus;Boulevard de Port-Royal;Quartier du Montparnasse;75014
636;Cité - Palais de Justice;48.8557337;2.3463397;bus;Boulevard du Palais;Quartier Les Îles;75004
637;Saint-Michel - Saint-Germain;48.8530661;2.344095;bus;Boulevard Saint-Michel;Quartier de la Sorbonne;75005
638;Marceau - Pierre 1er de Serbie - Place de Beyrouth;48.8676857;2.2995126;bus;Avenue Pierre-Iᵉʳ-de-Serbie;Quartier des Champs-Élysées;75008
639;Alma - Marceau;48.8649545;2.3007316;bus;Avenue du Président Wilson;Quartier des Champs-Élysées;75008
640;Marceau - Pierre 1er de Serbie - Place de Beyrouth;48.8678007;2.2992701;bus;Avenue Marceau;Quartier des Champs-Élysées;75008
641;Charles de Gaulle - Étoile - Marceau;48.8726562;2.2959361;bus;Paris 16e Arrondissement;Paris;75116
642;Charles de Gaulle - Étoile - Champs-Élysées;48.8731284;2.2966324;bus;Paris 8e Arrondissement;Paris;75008
643;Balzac;48.8746311;2.3024124;bus;Quartier du Faubourg-du-Roule;Paris 8e Arrondissement;75008
644;Charles de Gaulle - Étoile - Friedland;48.8738584;2.2969573;bus;Avenue de Friedland;Quartier du Faubourg-du-Roule;75008
645;Hoche - Saint-Honoré;48.8762546;2.3007676;bus;Avenue Hoche;Quartier du Faubourg-du-Roule;75008
646;Ternes;48.8789726;2.2989517;bus;Avenue de Wagram;Quartier des Ternes;75017
647;Ternes;48.8780653;2.297297;bus;Avenue des Ternes;Quartier des Ternes;75017
648;Ternes;48.8781435;2.2989719;bus;Boulevard de Courcelles;Quartier du Faubourg-du-Roule;75008
649;Ternes;48.8783783;2.2989441;bus;Boulevard de Courcelles;Quartier des Ternes;75017
650;Damrémont - Caulaincourt;48.8870177;2.3323378;bus;Rue Joseph de Maistre;Quartier des Grandes-Carrières;75018
651;Place de la Chapelle;48.8837753;2.3593675;bus;Rue du Faubourg Saint-Denis;Quartier Saint-Vincent-de-Paul;75010
652;La Fayette - Dunkerque;48.8797404;2.3583417;bus;Rue La Fayette;Quartier Saint-Vincent-de-Paul;75010
653;Château Landon;48.8806728;2.362146;bus;Rue La Fayette;Quartier Saint-Vincent-de-Paul;75010
654;Gare du Nord;48.8808356;2.3579616;bus;Rue du Faubourg Saint-Denis;Quartier Saint-Vincent-de-Paul;75010
655;Cail - Demarquay;48.881791;2.3584862;bus;Rue du Faubourg Saint-Denis;Quartier Saint-Vincent-de-Paul;75010
656;Gare du Nord;48.8810714;2.3579059;bus;Rue du Faubourg Saint-Denis;Quartier Saint-Vincent-de-Paul;75010
657;Grand Palais;48.8654199;2.3135631;bus;Avenue Winston Churchill;Quartier des Champs-Élysées;75008
658;Champs Élysées-Étoile;48.8734969;2.2963716;bus;Paris 8e Arrondissement;Paris;75008
659;Grand Palais;48.8652412;2.3135625;bus;Avenue Winston Churchill;Quartier des Champs-Élysées;75008
660;Charles de Gaulle - Étoile - Friedland;48.8739587;2.2963912;bus;Avenue de Friedland;Quartier du Faubourg-du-Roule;75008
661;Charles de Gaulle - Étoile - Marceau;48.8730842;2.2958582;bus;Paris 8e Arrondissement;Paris;75008
662;Charles de Gaulle - Étoile - Champs-Élysées;48.8733733;2.2967576;bus;Tunnel de l'Étoile;Quartier du Faubourg-du-Roule;75008
663;Charles de Gaulle - Étoile - Wagram;48.8746157;2.2954652;bus;Avenue de Wagram;Quartier des Ternes;75017
664;Château Landon;48.8808638;2.3632492;bus;Rue La Fayette;Quartier Saint-Vincent-de-Paul;75010
665;Louis Blanc;48.8808018;2.3646698;bus;Rue du Faubourg Saint-Martin;Quartier Saint-Vincent-de-Paul;75010
666;Clisson;48.831857;2.3657155;bus;Rue Jeanne d'Arc;Quartier de la Gare;75013
667;Clisson;48.8314155;2.3660343;bus;Rue Jeanne d'Arc;Quartier de la Gare;75013
668;Les Alpes;48.8319025;2.3591835;bus;Boulevard Vincent Auriol;Quartier de la Gare;75013
669;Denfert-Rochereau-Métro-RER;48.8335213;2.3339953;bus;Boulevard Saint-Jacques;Quartier du Petit-Montrouge;75014
670;Iéna;48.8653193;2.294864;bus;Avenue Pierre-Iᵉʳ-de-Serbie;Chaillot;75116
671;Iéna;48.8641489;2.2934242;bus;Avenue d'Iéna;Chaillot;75116
672;Iéna;48.8640088;2.2930043;bus;Avenue d'Iéna;Chaillot;75116
673;Alma - Marceau;48.8640715;2.3010513;bus;Avenue de New York;Chaillot;75016
674;Musée d'Art Moderne - Palais de Tokyo;48.8636148;2.2972591;bus;Avenue de New York;Chaillot;75116
675;Censier - Daubenton;48.8406244;2.3516236;bus;Rue Daubenton;Quartier du Jardin des Plantes;75005
676;Censier - Daubenton;48.8406719;2.3519653;bus;Rue de Mirbel;Quartier du Jardin des Plantes;75005
677;Monge - Claude Bernard;48.838593;2.350126;bus;Rue Claude Bernard;Quartier du Jardin des Plantes;75005
678;Trocadéro;48.86386;2.2879677;bus;Avenue Kléber;Chaillot;75116
679;Scheffer;48.8603072;2.2859199;bus;Rue Benjamin Franklin;Quartier de la Muette;75116
680;Trocadéro;48.8637724;2.2876551;bus;Avenue Kléber;Chaillot;75116
681;Georges Mandel - Trocadéro;48.8632498;2.2859288;bus;Avenue Georges Mandel;Quartier de la Porte-Dauphine;75116
682;Charles de Gaulle - Étoile - Kléber;48.8726724;2.2941072;bus;Paris 16e Arrondissement;Paris;75116
683;Charles de Gaulle - Étoile - Victor Hugo;48.8732072;2.2934772;bus;Paris 16e Arrondissement;Paris;75116
684;Charles de Gaulle - Étoile - Victor Hugo;48.8731747;2.293826;bus;Paris 16e Arrondissement;Paris;75116
685;Charles de Gaulle - Étoile - Kléber;48.8726164;2.2943223;bus;Avenue Kléber;Chaillot;75116
686;Victor Hugo - Poincaré;48.8692074;2.2859874;bus;Rue Boissière;Chaillot;75116
687;Victor Hugo - Paul Valéry;48.8714123;2.289238;bus;Villa d'Eylau;Chaillot;75116
688;Foch;48.8717442;2.2847057;bus;Avenue Raymond Poincaré;Quartier de la Porte-Dauphine;75116
689;Foch;48.8719746;2.2848508;bus;Avenue Raymond Poincaré;Chaillot;75116
690;Alphand;48.8746475;2.2841725;bus;Avenue de Malakoff;Chaillot;75116
691;Alphand;48.8743586;2.2840384;bus;Avenue de Malakoff;Quartier de la Porte-Dauphine;75116
692;Porte Maillot - Grande Armée;48.8769503;2.2846656;bus;Avenue de la Grande Armée;Chaillot;75116
693;Albert de Mun;48.863911;2.2913488;bus;Avenue du Président Wilson;Chaillot;75116
694;Longchamp;48.8684369;2.2729766;bus;Paris 16e Arrondissement;Paris;75116
695;Longchamp;48.8683754;2.2732348;bus;Boulevard Lannes;Quartier de la Porte-Dauphine;75116
696;Victor Hugo - Henri Martin;48.8643826;2.2733115;bus;Avenue Henri Martin;Quartier de la Porte-Dauphine;75116
697;Victor Hugo - Henri Martin;48.8640077;2.2727886;bus;Avenue Henri Martin;Quartier de la Muette;75116
698;Pompe - Mairie du XVIe;48.8636582;2.277128;bus;Rue de la Pompe;Quartier de la Muette;75116
699;Pompe - Mairie du XVIe;48.8635567;2.2768833;bus;Rue de la Pompe;Quartier de la Muette;75116
700;Lycée Janson de Sailly;48.865822;2.2796478;bus;Rue de la Pompe;Quartier de la Porte-Dauphine;75116
701;Lycée Janson de Sailly;48.8657966;2.2794544;bus;Rue de la Pompe;Quartier de la Porte-Dauphine;75116
702;Nicolo - Jean Richepin;48.8610434;2.2753874;bus;Rue de la Pompe;Quartier de la Muette;75116
703;Porte de la Muette;48.8634454;2.269048;bus;Boulevard Lannes;Quartier de la Porte-Dauphine;75116
704;Porte Maillot - Malakoff;48.876715;2.2836061;bus;Avenue de Malakoff;Chaillot;75116
705;Place de Passy;48.8578615;2.2777857;bus;Quartier de la Muette;Paris 16e Arrondissement;75016
706;Institut Pasteur;48.8393966;2.3097511;bus;Rue des Volontaires;Quartier Necker;75015
707;Institut Pasteur;48.838982;2.311856;bus;Rue Falguière;Quartier Necker;75015
708;Armorique - Musée Postal;48.8405505;2.3156464;bus;Boulevard de Vaugirard;Quartier Necker;75015
709;Armorique - Pasteur;48.8400276;2.3147291;bus;Rue de l'Armorique;Quartier Necker;75015
710;Observatoire - Port Royal;48.8395197;2.3370992;bus;Boulevard de Port-Royal;Quartier du Montparnasse;75014
711;Saint-Marcel - La Pitié;48.8396578;2.3612668;bus;Boulevard Saint-Marcel;Quartier de la Salpêtrière;75013
712;Saint-Marcel - La Pitié;48.8396774;2.3610024;bus;Boulevard Saint-Marcel;Quartier de la Salpêtrière;75013
713;Campagne Première;48.8408283;2.333201;bus;Boulevard du Montparnasse;Quartier Notre-Dame-des-Champs;75006
714;Gare d'Austerlitz;48.8431091;2.3642177;bus;Boulevard de l'Hôpital;Quartier de la Salpêtrière;75013
715;Campagne Première;48.840421;2.3341998;bus;Boulevard du Montparnasse;Quartier du Montparnasse;75014
716;Lyon - Ledru-Rollin;48.8487118;2.3709715;bus;Rue de Lyon;Quartier des Quinze-Vingts;75012
717;Saint-Marcel - Jeanne d'Arc;48.8381871;2.3562363;bus;Quartier de la Salpêtrière;Paris 13e Arrondissement;75013
718;Bastille;48.8523087;2.3696447;bus;Rue de Lyon;Quartier des Quinze-Vingts;75012
719;Port Royal - Saint-Jacques;48.8386513;2.3400399;bus;Boulevard de Port-Royal;Quartier du Montparnasse;75014
720;Gare d'Austerlitz - Cour Seine;48.8434082;2.3641784;bus;Boulevard de l'Hôpital;Quartier du Jardin des Plantes;75005
721;Les Gobelins;48.8369271;2.3527221;bus;Boulevard Saint-Marcel;Quartier de la Salpêtrière;75013
722;Cotentin - Montparnasse 3;48.8387033;2.3140244;bus;Rue du Cotentin;Quartier Necker;75015
723;Montparnasse 2 - Gare TGV;48.8386875;2.3167356;bus;Place des Cinq Martyrs du Lycée Buffon;Quartier Necker;75015
724;Gare Montparnasse;48.8420826;2.3199439;bus;Boulevard de Vaugirard;Quartier Necker;75015
725;Gare Montparnasse;48.8420814;2.3211329;bus;Quartier Necker;Paris 15e Arrondissement;75015
726;Armorique - Musée Postal;48.8410726;2.3163833;bus;Boulevard de Vaugirard;Quartier Necker;75015
727;Gare Montparnasse;48.8421568;2.3209958;bus;Avenue du Maine;Quartier Necker;75015
728;Mairie du 15e;48.8419832;2.2989207;bus;Rue Pétel;Quartier Saint-Lambert;75015
729;Place de Catalogne;48.8372558;2.3191668;bus;Rue Vercingétorix;Quartier de Plaisance;75014
730;Place de Catalogne;48.8373524;2.3190859;bus;Rue Vercingétorix;Quartier de Plaisance;75014
731;Montsouris - Tombe Issoire;48.8230278;2.3308126;bus;Rue de la Tombe Issoire;Quartier du Parc-de-Montsouris;75014
732;Porte de Vanves;48.8262988;2.3046004;bus;Place Marthe Simard;Quartier de Plaisance;75014
733;Pont des Invalides - Place de Finlande;48.8627665;2.3111506;bus;Quai d'Orsay;Quartier des Invalides;75007
734;Pont Alexandre III;48.8629125;2.3145798;bus;Quai d'Orsay;Quartier des Invalides;75007
735;Rennes - D'Assas;48.848775;2.3284151;bus;Rue de Rennes;Quartier Notre-Dame-des-Champs;75006
736;Michel Debré;48.8512883;2.3309757;bus;Rue de Rennes;Quartier Notre-Dame-des-Champs;75006
737;Rennes - Raspail;48.8483617;2.327569;bus;Boulevard Raspail;Quartier Notre-Dame-des-Champs;75006
738;Rennes - D'Assas;48.8492905;2.3291417;bus;Rue de Rennes;Quartier Notre-Dame-des-Champs;75006
739;Michel Debré;48.8512123;2.3306579;bus;Rue de Rennes;Quartier Notre-Dame-des-Champs;75006
740;Bartholomé;48.8272441;2.3008325;bus;Avenue de la Porte Brancion;Quartier Saint-Lambert;75015
741;Brancion - Vouille;48.8343896;2.3047907;bus;Rue Brancion;Quartier Saint-Lambert;75015
742;Brancion;48.8288644;2.3013743;bus;Rue Brancion;Quartier Saint-Lambert;75015
743;Institut Pasteur;48.8400305;2.3101796;bus;Rue du Docteur Roux;Quartier Necker;75015
744;Morillons - Brancion;48.8318637;2.3027546;bus;Rue Brancion;Quartier Saint-Lambert;75015
745;Alleray - La Quintinie;48.8371205;2.3025721;bus;Rue d'Alleray;Quartier Saint-Lambert;75015
746;Alleray;48.837695;2.3058614;bus;Rue Paul Barruel;Quartier Saint-Lambert;75015
747;Alleray;48.8370186;2.3060918;bus;Rue Paul Barruel;Quartier Saint-Lambert;75015
748;Morillons;48.8314358;2.3058007;bus;Rue du Lieuvin;Quartier Saint-Lambert;75015
749;Jacob;48.8562765;2.3345278;bus;Rue Bonaparte;Quartier de Saint-Germain-des-Prés;75006
750;Pont du Carrousel - Quai Voltaire;48.8582366;2.3337605;bus;Quai Malaquais;Quartier de Saint-Germain-des-Prés;75006
751;Palais Royal - Comédie Française;48.8642974;2.3351961;bus;Avenue de l'Opéra;Quartier du Palais Royal;75001
752;Palais Royal - Comédie Française;48.8640992;2.334961;bus;Avenue de l'Opéra;Quartier du Palais Royal;75001
753;Musée du Louvre;48.8608207;2.3339436;bus;Place du Carrousel;Quartier Saint-Germain-l'Auxerrois;75001
754;Musée du Louvre;48.8607732;2.3335214;bus;Quartier Saint-Germain-l'Auxerrois;Paris 1er Arrondissement;75001
755;Damremont - Marcadet;48.8921211;2.3353653;bus;Rue Damrémont;Quartier des Grandes-Carrières;75018
756;Damremont - Marcadet;48.8917635;2.3344328;bus;Rue Marcadet;Quartier des Grandes-Carrières;75018
757;Opéra - 4 Septembre;48.8698639;2.3328021;bus;Avenue de l'Opéra;Quartier Gaillon;75002
758;Poteau - Belliard;48.8962803;2.3381398;bus;Rue Damrémont;Quartier des Grandes-Carrières;75018
759;Damrémont - Championnet;48.8957201;2.3379375;bus;Rue Damrémont;Quartier des Grandes-Carrières;75018
760;Angélique Compoint;48.8983007;2.337119;bus;Avenue de la Porte de Montmartre;Quartier des Grandes-Carrières;75018
761;René Binet;48.8993083;2.3360266;bus;Avenue de la Porte de Montmartre;Quartier des Grandes-Carrières;75018
762;Poteau - Belliard;48.8969551;2.3383695;bus;Rue du Poteau;Quartier des Grandes-Carrières;75018
763;Damrémont - Ordener;48.8939304;2.3366547;bus;Rue Damrémont;Quartier des Grandes-Carrières;75018
764;Opéra;48.8712127;2.3314091;bus;Rue Auber;Quartier de la Chaussée-d'Antin;75009
765;Damrémont - Championnet;48.8949691;2.3372298;bus;Rue Damrémont;Quartier des Grandes-Carrières;75018
766;Damremont - Lamarck;48.8905519;2.3340246;bus;Rue Lamarck;Quartier des Grandes-Carrières;75018
767;Opéra - 4 Septembre;48.8696658;2.3325697;bus;Avenue de l'Opéra;Quartier Gaillon;75002
768;Place Jacques Froment;48.8908522;2.3319023;bus;Rue Lamarck;Quartier des Grandes-Carrières;75018
769;Damremont - Ordener;48.8932959;2.3360594;bus;Rue Damrémont;Quartier des Grandes-Carrières;75018
770;Havre - Haussmann;48.8732022;2.3278879;bus;Rue Auber;Quartier de la Chaussée-d'Antin;75009
771;Damrémont - Caulaincourt;48.8870447;2.3326289;bus;Rue Damrémont;Quartier des Grandes-Carrières;75018
772;Pyramides;48.8669825;2.3340214;bus;Avenue de l'Opéra;Quartier du Palais Royal;75001
773;Clichy - Caulaincourt;48.8851547;2.3304945;bus;Rue Caulaincourt;Quartier des Grandes-Carrières;75018
774;Opéra;48.8713361;2.3312078;bus;Rue Auber;Quartier de la Chaussée-d'Antin;75009
775;Place Jacques Froment;48.8909507;2.3312271;bus;Place Jacques Froment;Quartier des Grandes-Carrières;75018
776;Pyramides;48.866825;2.3338273;bus;Avenue de l'Opéra;Quartier du Palais Royal;75001
777;Angélique Compoint;48.8980766;2.3371132;bus;Avenue de la Porte de Montmartre;Quartier des Grandes-Carrières;75018
778;Porte de Passy;48.8572986;2.265105;bus;Allée Davia;Quartier de la Muette;75016
779;Les Vignes - Boulainvilliers;48.8559698;2.2748552;bus;Rue de Boulainvilliers;Quartier de la Muette;75016
780;Place du Docteur Hayem - Radio France;48.852331;2.2763791;bus;Rue de Boulainvilliers;Quartier de la Muette;75016
781;Pont de Grenelle - Maurice Bourdet;48.8508999;2.2788345;bus;Voie Georges Pompidou;Quartier d'Auteuil;75016
782;Pont de Grenelle - Maurice Bourdet;48.8512163;2.2788774;bus;Rue Maurice Bourdet;Quartier de la Muette;75016
783;Gare Saint-Lazare;48.8751364;2.324535;bus;Rue de Rome;Quartier de la Madeleine;75008
784;Saint-Augustin;48.8749468;2.3212705;bus;Rue de la Pépinière;Quartier de la Madeleine;75008
785;Gare Saint-Lazare - Havre;48.8750075;2.3266162;bus;Rue du Havre;Quartier de la Madeleine;75008
786;Havre - Haussmann;48.8733853;2.3267321;bus;Rue Tronchet;Quartier de la Madeleine;75008
787;Havre - Haussmann;48.8733384;2.3269318;bus;Rue Tronchet;Quartier de la Chaussée-d'Antin;75009
788;Gare Saint-Lazare;48.8754366;2.3260841;bus;Rue Saint-Lazare;Quartier de l'Europe;75008
789;Saint-Augustin - La Boétie;48.8743477;2.317957;bus;Rue La Boétie;Quartier de la Madeleine;75008
790;Gare Saint-Lazare - Havre;48.8744039;2.3267612;bus;Rue du Havre;Quartier de la Madeleine;75008
791;Saint-Augustin;48.8749197;2.32102;bus;Rue de la Pépinière;Quartier de la Madeleine;75008
792;Havre - Caumartin;48.8737331;2.3279649;bus;Boulevard Haussmann;Quartier de la Chaussée-d'Antin;75009
793;Porte d'Orléans;48.8213051;2.3256126;bus;Avenue de la Porte d'Orléans;Quartier du Petit-Montrouge;75014
794;Perrichont;48.8500561;2.2726667;bus;Avenue Théophile Gautier;Quartier d'Auteuil;75016
795;Perrichont;48.849859;2.2719224;bus;Avenue Théophile Gautier;Quartier d'Auteuil;75016
796;Damesme;48.8203366;2.3564034;bus;Boulevard Kellermann;Quartier de la Maison-Blanche;75013
797;Poterne des Peupliers;48.8206732;2.3511433;bus;Rue Gouthière;Quartier de la Maison-Blanche;75013
798;Porte d'Italie - Hélène Boucher;48.8186929;2.359768;bus;Boulevard Masséna;Quartier de la Maison-Blanche;75013
799;Poterne des Peupliers;48.8205681;2.3510936;bus;Rue Gouthière;Quartier de la Maison-Blanche;75013
800;Damesme;48.8201896;2.3561812;bus;Boulevard Kellermann;Quartier de la Maison-Blanche;75013
801;Léopold II;48.8510534;2.2719919;bus;Rue Jean de La Fontaine;Quartier d'Auteuil;75016
802;Place d'Italie - Bobillot;48.8303062;2.3545891;bus;Rue Bobillot;Quartier de la Maison-Blanche;75013
803;Place d'Italie - Mairie du 13e;48.8325589;2.3549334;bus;Avenue des Gobelins;Quartier de la Salpêtrière;75013
804;Place d'Italie - Auriol;48.831322;2.3577518;bus;Boulevard Vincent Auriol;Quartier de la Gare;75013
805;Place d'Italie - Italie 2;48.8302607;2.3560931;bus;Avenue d'Italie;Quartier de la Maison-Blanche;75013
806;Vandrezanne;48.8276556;2.3567123;bus;Avenue d'Italie;Quartier de la Maison-Blanche;75013
807;Italie - Tolbiac;48.825533;2.3573139;bus;Avenue d'Italie;Quartier de la Maison-Blanche;75013
808;Italie - Tolbiac;48.8265969;2.357238;bus;Avenue d'Italie;Quartier de la Maison-Blanche;75013
809;Italie - Tolbiac;48.8262088;2.3565722;bus;Rue de Tolbiac;Quartier de la Maison-Blanche;75013
810;Vandrezanne;48.828097;2.356772;bus;Avenue d'Italie;Quartier de la Maison-Blanche;75013
811;Italie - Tolbiac;48.8260878;2.356599;bus;Rue de Tolbiac;Quartier de la Maison-Blanche;75013
812;Parc de Choisy;48.8274159;2.3589158;bus;Avenue de Choisy;Quartier de la Maison-Blanche;75013
813;Parc de Choisy;48.8279805;2.3585499;bus;Avenue de Choisy;Quartier de la Gare;75013
814;Choisy - Tolbiac;48.8262038;2.3607487;bus;Rue de Tolbiac;Quartier de la Gare;75013
815;Choisy - Tolbiac;48.8263012;2.3606389;bus;Rue de Tolbiac;Quartier de la Gare;75013
816;Alésia - Général Leclerc;48.8277796;2.3279189;bus;Rue d'Alésia;Quartier du Petit-Montrouge;75014
817;Alésia - Général Leclerc;48.8278937;2.3276801;bus;Rue d'Alésia;Quartier du Petit-Montrouge;75014
818;Alésia - Jean Moulin;48.828254;2.3257415;bus;Rue d'Alésia;Quartier du Petit-Montrouge;75014
819;Alésia - Jean Moulin;48.8279556;2.3261896;bus;Rue d'Alésia;Quartier du Petit-Montrouge;75014
820;Denfert Rochereau;48.8332605;2.3328848;bus;Place Denfert-Rochereau;Quartier du Petit-Montrouge;75014
821;Victor Considerant;48.835231;2.3319619;bus;Boulevard Raspail;Quartier du Montparnasse;75014
822;Denfert Rochereau;48.8337783;2.3314652;bus;Place Denfert-Rochereau;Quartier du Montparnasse;75014
823;Victor Considerant;48.8351019;2.3323353;bus;Boulevard Raspail;Quartier du Montparnasse;75014
824;Denfert-Rochereau - Froidevaux;48.8341455;2.3307786;bus;Place Denfert-Rochereau;Quartier du Montparnasse;75014
825;Froidevaux - Gassendi;48.8358389;2.3282447;bus;Rue Froidevaux;Quartier du Montparnasse;75014
826;Jean Zay - Maine;48.8376627;2.3218501;bus;Rue Jean Zay;Quartier de Plaisance;75014
827;Froidevaux - Gassendi;48.8361575;2.3270402;bus;Rue Froidevaux;Quartier du Montparnasse;75014
828;Denfert-Rochereau - Froidevaux;48.8346062;2.3316299;bus;Place Denfert-Rochereau;Quartier du Montparnasse;75014
829;Jean Zay - Maine;48.8375268;2.3219436;bus;Rue Jean Zay;Quartier de Plaisance;75014
830;Dareau - René Coty;48.8304341;2.333667;bus;Avenue René Coty;Quartier du Petit-Montrouge;75014
831;Parc Montsouris;48.8245619;2.3362604;bus;Avenue René Coty;Quartier du Parc-de-Montsouris;75014
832;René Coty;48.8273064;2.3355487;bus;Rue d'Alésia;Quartier du Parc-de-Montsouris;75014
833;Parc Montsouris;48.8244073;2.3359184;bus;Avenue René Coty;Quartier du Parc-de-Montsouris;75014
834;René Coty;48.8273875;2.3358241;bus;Rue d'Alésia;Quartier du Parc-de-Montsouris;75014
835;Denfert-Rochereau-Métro-RER;48.8330337;2.3330873;bus;Avenue René Coty;Quartier du Petit-Montrouge;75014
836;Dareau - René Coty;48.8305187;2.3340243;bus;Avenue René Coty;Quartier du Petit-Montrouge;75014
837;Alésia - René Coty;48.8271544;2.3348724;bus;Rue des Artistes;Quartier du Parc-de-Montsouris;75014
838;Théâtre;48.849216;2.2878347;bus;Place Saint-Charles;Quartier de Grenelle;75015
839;Convention - Saint-Charles;48.8437077;2.2823508;bus;Rue de la Convention;Quartier de Javel;75015
840;Charles Michels;48.8470238;2.285972;bus;Rue Saint-Charles;Quartier de Grenelle;75015
841;Théâtre;48.847953;2.2899408;bus;Rue de Lourmel;Quartier de Grenelle;75015
842;Hôpital Européen Georges Pompidou;48.8397941;2.2724649;bus;Rue Leblanc;Quartier de Javel;75015
843;Convention - Saint-Charles;48.843577;2.2823071;bus;Rue de la Convention;Quartier de Javel;75015
844;Balard - Lecourbe;48.8363687;2.2809864;bus;Rue Leblanc;Quartier de Javel;75015
845;Rue Leblanc;48.8394893;2.2745593;bus;Quartier de Javel;Paris 15e Arrondissement;75015
846;Rue Rouelle;48.8494635;2.2912491;bus;Rue de Lourmel;Quartier de Grenelle;75015
847;Convention - Saint-Charles;48.843581;2.2829442;bus;Rue Saint-Charles;Quartier de Javel;75015
848;Place Balard;48.8373003;2.2774973;bus;Rue Saint-Charles;Quartier de Javel;75015
849;Abbé Groult;48.8407269;2.2962412;bus;Rue Lecourbe;Quartier Saint-Lambert;75015
850;Rue Leblanc;48.8393553;2.2752743;bus;Quartier de Javel;Paris 15e Arrondissement;75015
851;Duranton;48.8384288;2.2886314;bus;Rue Lecourbe;Quartier de Javel;75015
852;Hôpital Européen Georges Pompidou;48.8399961;2.2723063;bus;Rue Leblanc;Quartier de Javel;75015
853;Leblanc - Delbarre;48.8380437;2.2754441;bus;Rue Leblanc;Quartier de Javel;75015
854;Charles Michels;48.845437;2.2877277;bus;Rue de Lourmel;Quartier de Javel;75015
855;Convention - Lecourbe;48.8391552;2.2912931;bus;Rue Lecourbe;Quartier Saint-Lambert;75015
856;Place Balard;48.8370067;2.2780746;bus;Rue Leblanc;Quartier de Javel;75015
857;Vaugirard - Croix-Nivert;48.8342698;2.2909012;bus;Rue de Vaugirard;Quartier Saint-Lambert;75015
858;Hameau;48.8358098;2.2893082;bus;Rue Desnouettes;Quartier Saint-Lambert;75015
859;Desnouettes - Vasco de Gama;48.8355213;2.2861616;bus;Rue Desnouettes;Quartier Saint-Lambert;75015
860;Abbé Groult;48.8385608;2.2990864;bus;Rue de Vaugirard;Quartier Saint-Lambert;75015
861;Desnouettes;48.8346549;2.284423;bus;Rue Desnouettes;Quartier Saint-Lambert;75015
862;Sèvres - Lecourbe;48.8449077;2.311377;bus;Place Henri-Queuille;Quartier Necker;75015
863;Hôpital de Vaugirard;48.8355714;2.2930685;bus;Rue de Vaugirard;Quartier Saint-Lambert;75015
864;Jasmin;48.852123;2.2680539;bus;Avenue Mozart;Quartier d'Auteuil;75016
865;Monge - Claude Bernard;48.8389267;2.3507645;bus;Place Claude Sautet;Quartier du Jardin des Plantes;75005
866;Monge - Claude Bernard;48.83889;2.350939;bus;Rue Monge;Quartier du Jardin des Plantes;75005
867;Lycée Henri IV;48.8461796;2.3486258;bus;Rue Clovis;Quartier de la Sorbonne;75005
868;Cardinal Lemoine - Monge;48.8462806;2.3510037;bus;Rue du Cardinal Lemoine;Quartier Saint-Victor;75005
869;Luxembourg;48.8476489;2.340449;bus;Place Edmond Rostand;Quartier de l'Odéon;75006
870;Institut du Monde Arabe;48.8490884;2.3558926;bus;Rue des Fossés Saint-Bernard;Quartier Saint-Victor;75005
871;Lycée Henri IV;48.8462688;2.3487092;bus;Rue Clovis;Quartier de la Sorbonne;75005
872;Panthéon;48.8466424;2.3436914;bus;Rue Soufflot;Quartier de la Sorbonne;75005
873;Panthéon;48.8466962;2.3442208;bus;Rue Soufflot;Quartier de la Sorbonne;75005
874;Cardinal Lemoine - Monge;48.8467291;2.3519515;bus;Rue du Cardinal Lemoine;Quartier Saint-Victor;75005
875;Gare d'Austerlitz - Cour Seine;48.843289;2.3659385;bus;Quai d'Austerlitz;Quartier de la Salpêtrière;75013
876;Université Paris VI;48.8491339;2.3577402;bus;Quai Saint-Bernard;Quartier Saint-Victor;75005
877;Jardin des Plantes;48.8444611;2.3638117;bus;Esplanade Lamarck;Quartier du Jardin des Plantes;75005
878;Sénat;48.8492312;2.3369853;bus;Rue de Vaugirard;Quartier de l'Odéon;75006
879;Rennes - Raspail;48.8474868;2.3282896;bus;Rue de Vaugirard;Quartier Notre-Dame-des-Champs;75006
880;Gare d'Austerlitz;48.8436066;2.3652724;bus;Place Valhubert;Quartier de la Salpêtrière;75013
881;Cuvier;48.8471829;2.3603072;bus;Quai Saint-Bernard;Quartier Saint-Victor;75005
882;Bibliothèque François Mitterrand;48.8292241;2.3777049;bus;Quai F;Quartier de la Gare;75013
883;Université Paris VI;48.8484507;2.3584221;bus;Quai Saint-Bernard;Quartier Saint-Victor;75005
884;Bibliothèque Nationale de France;48.8343173;2.3733707;bus;Avenue de France;Quartier de la Gare;75013
885;Musée du Luxembourg;48.8485716;2.3320351;bus;Rue de Vaugirard;Quartier de l'Odéon;75006
886;Maine - Vaugirard;48.8447711;2.3192081;bus;Rue de Vaugirard;Quartier Necker;75015
887;Musée du Luxembourg;48.8487681;2.3333437;bus;Rue de Vaugirard;Quartier de l'Odéon;75006
888;Bibliothèque Nationale de France;48.8346575;2.3733881;bus;Rue Raymond Aron;Quartier de la Gare;75013
889;Émile Durkheim;48.8311701;2.3763282;bus;Avenue de France;Quartier de la Gare;75013
890;Rennes - Raspail;48.8474523;2.3285202;bus;Rue de Vaugirard;Quartier Notre-Dame-des-Champs;75006
891;Gare d'Austerlitz;48.8437842;2.3642271;bus;Place Valhubert;Quartier du Jardin des Plantes;75005
892;Georges Brassens;48.8301471;2.2956688;bus;Rue de Dantzig;Quartier Saint-Lambert;75015
893;Morillons - Dantzig;48.8329279;2.2979942;bus;Rue de Dantzig;Quartier Saint-Lambert;75015
894;Théâtre de la Plaine - Guillaumat;48.8280306;2.2932205;bus;Rue du Général Guillaumat;Quartier Saint-Lambert;75015
895;Bibliothèque François Mitterrand;48.8300583;2.3769122;bus;Quartier de la Gare;Paris 13e Arrondissement;75013
896;Morillons - Dantzig;48.8331727;2.2993941;bus;Rue des Morillons;Quartier Saint-Lambert;75015
897;Place Charles Vallin;48.8351781;2.302721;bus;Rue de Cronstadt;Quartier Saint-Lambert;75015
898;Place Charles Vallin;48.8352411;2.3031151;bus;Rue de Vouillé;Quartier Saint-Lambert;75015
899;Théâtre de la Plaine - Guillaumat;48.8281384;2.2929988;bus;Rue du Général Guillaumat;Quartier Saint-Lambert;75015
900;Georges Brassens;48.8301362;2.295954;bus;Rue de Dantzig;Quartier Saint-Lambert;75015
901;Morillons - Brancion;48.8322353;2.3026706;bus;Rue des Morillons;Quartier Saint-Lambert;75015
902;Place Charles Vallin;48.8357176;2.301862;bus;Rue de la Convention;Quartier Saint-Lambert;75015
903;Canal Saint-Martin;48.8801898;2.3668847;bus;Rue Louis Blanc;Quartier de l'Hôpital Saint-Louis;75010
904;Degas;48.8489633;2.2751388;bus;Avenue de Versailles;Quartier d'Auteuil;75016
905;Crimée;48.8904236;2.3762082;bus;Avenue de Flandre;Quartier de la Villette;75019
906;Cauchy;48.8429276;2.2776213;bus;Rue Balard;Quartier de Javel;75015
907;Javel;48.8460831;2.2779311;bus;Avenue Émile Zola;Quartier de Javel;75015
908;Cauchy;48.8425254;2.2772241;bus;Rue Cauchy;Quartier de Javel;75015
909;Émile Zola - Javel;48.8463745;2.2812414;bus;Avenue Émile Zola;Quartier de Javel;75015
910;Parc André Citroën;48.8400351;2.278159;bus;Rue Balard;Quartier de Javel;75015
911;Charles Michels;48.8463476;2.2865098;bus;Rue des Entrepreneurs;Quartier de Grenelle;75015
912;Violet;48.8449605;2.2898572;bus;Rue des Entrepreneurs;Quartier de Grenelle;75015
913;Charles Michels;48.8471478;2.2851722;bus;Rue Linois;Quartier de Grenelle;75015
914;Émile Zola - Javel;48.8462588;2.2814202;bus;Place Alphonse Humbert;Quartier de Javel;75015
915;Félix Faure;48.8434211;2.2935734;bus;Rue des Entrepreneurs;Quartier de Javel;75015
916;Raynouard - Ranelagh;48.8534614;2.2769159;bus;Rue Raynouard;Quartier de la Muette;75016
917;Javel;48.8463859;2.27734;bus;Quai André Citroën;Quartier de Javel;75015
918;Péclet;48.8437425;2.2979807;bus;Rue Mademoiselle;Quartier Saint-Lambert;75015
919;Parc André Citroën;48.8406969;2.277877;bus;Rue Balard;Quartier de Javel;75015
920;Violet;48.8447996;2.2899924;bus;Rue des Entrepreneurs;Quartier de Javel;75015
921;Pont de Grenelle - Place Fernand Forest;48.8488086;2.2822567;bus;Rue Linois;Quartier de Javel;75015
922;Pont de Grenelle - Place Fernand Forest;48.8490144;2.2823023;bus;Rue Linois;Quartier de Grenelle;75015
923;Champ de Mars - Suffren;48.8549684;2.2958359;bus;Avenue Joseph Bouvard;Quartier du Gros-Caillou;75007
924;Rapp - La Bourdonnais;48.8572643;2.3000289;bus;Avenue Barbey d'Aurevilly;Quartier du Gros-Caillou;75007
925;Rapp - La Bourdonnais;48.8574417;2.2995206;bus;Avenue Émile Pouvillon;Quartier du Gros-Caillou;75007
926;Tour Eiffel;48.8603413;2.2958124;bus;Avenue de la Bourdonnais;Quartier du Gros-Caillou;75007
927;Bosquet - Rapp;48.8623933;2.300974;bus;Quai Branly;Quartier du Gros-Caillou;75007
928;Bosquet - Rapp;48.8628003;2.3020368;bus;Pont de l'Alma;Quartier du Gros-Caillou;75007
929;Champ de Mars - Suffren;48.8549702;2.2966565;bus;Avenue Charles Floquet;Quartier du Gros-Caillou;75007
930;Dupleix;48.851976;2.2920058;bus;Rue Desaix;Quartier de Grenelle;75015
931;Desaix;48.8530417;2.2933427;bus;Rue Desaix;Quartier de Grenelle;75015
932;Desaix;48.8528479;2.2929368;bus;Rue Desaix;Quartier de Grenelle;75015
933;Tour Eiffel;48.8604705;2.2958933;bus;Avenue de la Bourdonnais;Quartier du Gros-Caillou;75007
934;Michel-Ange - Auteuil;48.8488003;2.2637988;bus;Rue Poussin;Quartier d'Auteuil;75016
935;Champ de Mars - La Bourdonnais;48.8565257;2.3020405;bus;Avenue de la Bourdonnais;Quartier du Gros-Caillou;75007
936;Oudinot;48.8489693;2.3152122;bus;Boulevard des Invalides;Quartier de l'École Militaire;75007
937;Champ de Mars - La Bourdonnais;48.855836;2.3028001;bus;Avenue de la Bourdonnais;Quartier du Gros-Caillou;75007
938;Sèvres - Babylone;48.8521152;2.3268386;bus;Boulevard Raspail;Quartier Saint-Thomas-d'Aquin;75007
939;Bac - Saint-Placide;48.8496572;2.3227652;bus;Rue de Sèvres;Quartier Saint-Thomas-d'Aquin;75007
940;Saint-François-Xavier;48.8516444;2.3140726;bus;Quartier de l'École Militaire;Paris 7e Arrondissement;75007
941;Vaneau - Saint-Romain;48.8485811;2.3210023;bus;Galerie Sevrien;Quartier Notre-Dame-des-Champs;75006
942;Duquesne - Lowendal;48.8524058;2.3088586;bus;Avenue Duquesne;Quartier de l'École Militaire;75007
943;Saint-François-Xavier;48.8518368;2.3152799;bus;Rue de Babylone;Quartier des Invalides;75007
944;Sèvres - Babylone;48.8512266;2.3262946;bus;Rue de Sèvres;Quartier Saint-Thomas-d'Aquin;75007
945;Bac - Saint-Placide;48.849533;2.3228679;bus;Rue de Sèvres;Quartier Notre-Dame-des-Champs;75006
946;Gare d'Auteuil;48.8482474;2.2591963;bus;Boulevard Suchet;Quartier d'Auteuil;75016
947;Place de la Chapelle;48.8845473;2.3611014;bus;Boulevard de la Chapelle;Quartier de la Chapelle;75018
948;Porte d'Auteuil;48.8477013;2.2580426;bus;Place de la Porte d'Auteuil;Quartier d'Auteuil;75016
949;Église d'Auteuil;48.8480152;2.2697757;bus;Avenue Théophile Gautier;Quartier d'Auteuil;75016
950;Pont Mirabeau;48.8476571;2.2729102;bus;Rue de Rémusat;Quartier d'Auteuil;75016
951;Wilhem - Versailles;48.8455489;2.2719817;bus;Avenue de Versailles;Quartier d'Auteuil;75016
952;Centre Georges Pompidou;48.8599526;2.352725;bus;Rue du Renard;Quartier Saint-Merri;75004
953;Colonel Fabien;48.8780052;2.371209;bus;Avenue Mathurin Moreau;Quartier du Combat;75019
954;Mathurin Moreau - Simon Bolivar;48.8784159;2.3737947;bus;Avenue Mathurin Moreau;Quartier du Combat;75019
955;Mathurin Moreau - Simon Bolivar;48.8783992;2.3747044;bus;Avenue Mathurin Moreau;Quartier du Combat;75019
956;Secrétan - Buttes Chaumont;48.8787729;2.3780704;bus;Avenue Mathurin Moreau;Quartier du Combat;75019
957;Secrétan - Buttes Chaumont;48.8788874;2.3779971;bus;Avenue Mathurin Moreau;Quartier du Combat;75019
958;Mathurin Moreau - Simon Bolivar;48.8787857;2.3744196;bus;Avenue Simón Bolívar;Quartier du Combat;75019
959;Mathurin Moreau - Simon Bolivar;48.8786977;2.3742243;bus;Avenue Simón Bolívar;Quartier du Combat;75019
960;Porte de Champerret;48.8858628;2.292222;bus;Avenue Stéphane Mallarmé;Quartier de la Plaine-de-Monceau;75017
961;Wilhem;48.8450475;2.2711931;bus;Avenue de Versailles;Quartier d'Auteuil;75016
962;Exelmans;48.8434154;2.2604846;bus;Rue Michel-Ange;Quartier d'Auteuil;75016
963;Porte Molitor;48.8448861;2.2574517;bus;Boulevard Murat;Quartier d'Auteuil;75016
964;Lycée Claude Bernard;48.8421287;2.2559039;bus;Boulevard Murat;Quartier d'Auteuil;75016
965;Lycée Claude Bernard;48.8421456;2.2561783;bus;Boulevard Murat;Quartier d'Auteuil;75016
966;Versailles - Chardon Lagache;48.839441;2.2619754;bus;Avenue de Versailles;Quartier d'Auteuil;75016
967;Versailles - Chardon Lagache;48.8387616;2.2623727;bus;Rue Claude Terrasse;Quartier d'Auteuil;75016
968;Versailles - Chardon Lagache;48.8399235;2.2628064;bus;Rue Chardon-Lagache;Quartier d'Auteuil;75016
969;Versailles - Exelmans;48.8404861;2.2643586;bus;Avenue de Versailles;Quartier d'Auteuil;75016
970;Victorien Sardou;48.843094;2.2692276;bus;Avenue de Versailles;Quartier d'Auteuil;75016
971;Lachambeaudie;48.8358949;2.3858274;bus;Rue de Bercy;Quartier de Bercy;75012
972;Pajol - Département;48.886868;2.3613291;bus;Rue Pajol;Quartier de la Chapelle;75018
973;Pajol - Riquet;48.8898844;2.3634601;bus;Rue Riquet;Quartier de la Chapelle;75018
974;Châtelet;48.8574845;2.3489471;bus;Avenue Victoria;Quartier Saint-Merri;75004
975;Porte de Saint-Cloud;48.8380099;2.2561412;bus;Place de la Porte de Saint-Cloud;Quartier d'Auteuil;75016
976;Porte de Saint-Cloud - Murat;48.8382467;2.2581105;bus;Avenue de Versailles;Quartier d'Auteuil;75016
977;Porte de Saint-Cloud;48.8375814;2.2564752;bus;Place de la Porte de Saint-Cloud;Quartier d'Auteuil;75016
978;Porte de Saint-Cloud - Murat;48.8372703;2.2589422;bus;Boulevard Murat;Quartier d'Auteuil;75016
979;Pont de la Vallée;48.8255894;2.3019094;bus;Rue Claude Garamond;Quartier de Plaisance;75014
980;Petit Pont;48.8525037;2.3463959;bus;Rue du Petit Pont;Quartier de la Sorbonne;75005
981;Gare de l'Est;48.8761394;2.3586199;bus;Rue du 8 Mai 1945;Quartier Saint-Vincent-de-Paul;75010
982;Gare de l'Est;48.8761194;2.3580473;bus;Rue du 8 Mai 1945;Quartier de la Porte-Saint-Denis;75010
983;Pont de Solférino - Quai des Tuileries;48.8622556;2.3254741;bus;Quai Aimé Césaire;Quartier Saint-Germain-l'Auxerrois;75001
984;Rungis;48.8226494;2.347242;bus;Rue Bobillot;Quartier de la Maison-Blanche;75013
985;Saint-Germain - Cardinal Lemoine;48.8493215;2.3553775;bus;Boulevard Saint-Germain;Quartier Saint-Victor;75005
986;Saint-Germain - Cardinal Lemoine;48.849381;2.3538348;bus;Boulevard Saint-Germain;Quartier Saint-Victor;75005
987;Saint-Jacques - Gay-Lussac;48.8437255;2.342232;bus;Rue Gay-Lussac;Quartier du Val-de-Grâce;75005
988;Porte Molitor;48.8450091;2.2572426;bus;Boulevard Murat;Quartier d'Auteuil;75016
989;Porte d'Auteuil;48.8471998;2.2582586;bus;Boulevard Murat;Quartier d'Auteuil;75016
990;Porte d'Auteuil;48.8470143;2.2585872;bus;Boulevard Murat;Quartier d'Auteuil;75016
991;Gare d'Auteuil;48.8482775;2.2600932;bus;Rue Poussin;Quartier d'Auteuil;75016
992;Bosquet - Grenelle;48.8569798;2.3045047;bus;Avenue Bosquet;Quartier du Gros-Caillou;75007
993;Parc Montsouris;48.8243211;2.339925;bus;Rue Gazan;Quartier du Parc-de-Montsouris;75014
994;Musée du Louvre;48.8608509;2.3335628;bus;Quartier Saint-Germain-l'Auxerrois;Paris 1er Arrondissement;75001
995;Henry de Montherlant;48.86023;2.3272407;bus;Quai Valéry Giscard d'Estaing;Quartier Saint-Thomas-d'Aquin;75007
996;Opéra;48.8714119;2.3325973;bus;Rue Halévy;Quartier de la Chaussée-d'Antin;75009
997;Château de Vincennes;48.8441117;2.4415297;bus;Avenue de Nogent;Quartier de Picpus;75012
998;Concorde - Cours la Reine;48.8656537;2.3201055;bus;Terrasse de l'Orangerie;Quartier Saint-Germain-l'Auxerrois;75001
999;Gluck - Haussmann;48.8728489;2.3318466;bus;Rue Gluck;Quartier de la Chaussée-d'Antin;75009
1000;Mairie du 17e;48.8838676;2.3225552;bus;Rue des Batignolles;Quartier des Batignolles;75017
1001;Bucarest;48.8810195;2.3244213;bus;Rue Clapeyron;Quartier de l'Europe;75008
1002;Gare Saint-Lazare;48.8758441;2.3236838;bus;Rue de Rome;Quartier de l'Europe;75008
1003;Square des Batignolles;48.8863726;2.3173626;bus;Rue Boursault;Quartier des Batignolles;75017
1004;La Condamine;48.8846041;2.3193334;bus;Rue Boursault;Quartier des Batignolles;75017
1005;La Jonquière;48.89457;2.3209462;bus;Rue Pouchet;Quartier des Épinettes;75017
1006;Navier;48.89581;2.3227075;bus;Rue Navier;Quartier des Épinettes;75017
1007;Épinettes - Pouchet;48.8972653;2.3244855;bus;Rue Jacques Kellner;Quartier des Épinettes;75017
1008;Bois le Prêtre;48.8993187;2.3210074;bus;Boulevard du Bois le Prêtre;Quartier des Épinettes;75017
1009;Reuilly - Diderot;48.8472291;2.386374;bus;Boulevard Diderot;Quartier de Picpus;75012
1010;Reuilly - Diderot;48.8474923;2.3873807;bus;Boulevard Diderot;Quartier de Picpus;75012
1011;Nation-Diderot;48.848303;2.3945741;bus;Boulevard Diderot;Quartier de Picpus;75012
1012;Nation-Diderot;48.8481788;2.3947259;bus;Boulevard Diderot;Quartier de Picpus;75012
1013;Daumesnil - Diderot;48.846289;2.378099;bus;Boulevard Diderot;Quartier des Quinze-Vingts;75012
1014;Hôpital Saint-Antoine;48.8467598;2.3810401;bus;Boulevard Diderot;Quartier des Quinze-Vingts;75012
1015;Bois le Prêtre;48.8990314;2.3214144;bus;Boulevard du Bois le Prêtre;Quartier des Épinettes;75017
1016;Rue Pouchet;48.896827;2.3225917;bus;Quartier des Épinettes;Paris 17e Arrondissement;75017
1017;La Jonquière;48.8940076;2.3203856;bus;Rue Pouchet;Quartier des Épinettes;75017
1018;Nation - Trone;48.8484929;2.3971267;bus;Avenue du Trône;Quartier Sainte-Marguerite;75011
1019;Pierre Bourdan;48.8477832;2.3911928;bus;Boulevard Diderot;Quartier de Picpus;75012
1020;Hôpital Saint-Antoine;48.8467583;2.3822539;bus;Boulevard Diderot;Quartier des Quinze-Vingts;75012
1021;Buzenval;48.851844;2.4010499;bus;Rue d'Avron;Quartier de Charonne;75020
1022;Buzenval;48.8524573;2.4011013;bus;Rue de Buzenval;Quartier de Charonne;75020
1023;Avron;48.8514593;2.3989093;bus;Rue d'Avron;Quartier de Charonne;75020
1024;République;48.8680364;2.3640066;bus;Place de la République;Quartier de la Porte-Saint-Martin;75010
1025;Porte de Charenton;48.8309635;2.3989277;bus;Avenue de la Porte de Charenton;Quartier de Bercy;75012
1026;Terroirs de France;48.8322621;2.3892211;bus;Avenue des Terroirs de France;Quartier de Bercy;75012
1027;Terroirs de France;48.8317101;2.3877834;bus;Avenue des Terroirs de France;Quartier de Bercy;75012
1028;Porte de Charenton;48.8314189;2.3984123;bus;Avenue de la Porte de Charenton;Quartier de Picpus;75012
1029;Frères Lumière;48.8177557;2.4597142;bus;Avenue des Canadiens;Quartier de Picpus;75012
